country_name,city_code,country_code,time_zone,Airport name,code,iata_type,coordinates.lat,coordinates.lon,index,Total number of flights,scale
Sierra Leone,FNA,SL,Africa/Freetown,Lungi International Airport,FNA,airport,8.6175,-13.196944,FNA,26.0,1.3536693191865605
Azerbaijan,GBB,AZ,Asia/Baku,Gabala International Airport,GBB,airport,40.4936,47.4245,GBB,2.0,1.0141467727674625
Azerbaijan,BAK,AZ,Asia/Baku,Heydar Aliyev International Airport,GYD,airport,40.462486,50.05039,GYD,160.0,3.249336870026525
Azerbaijan,NAJ,AZ,Asia/Baku,Nakhichevan Airport,NAJ,airport,39.190277,45.45889,NAJ,4.0,1.0424403183023874
Azerbaijan,LLK,AZ,Asia/Baku,Lankaran International Airport,LLK,airport,38.74203,48.824093,LLK,12.0,1.1556145004420866
India,HYD,IN,Asia/Kolkata,Rajiv Gandhi International Airport,HYD,airport,17.24,78.428055,HYD,191.0,3.68788682581786
India,DIB,IN,Asia/Kolkata,Dibrugarh Airport,DIB,airport,27.482908,95.021065,DIB,10.0,1.1273209549071619
India,HBX,IN,Asia/Kolkata,Hubli Airport,HBX,airport,15.358738,75.08608,HBX,2.0,1.0141467727674625
India,BHJ,IN,Asia/Kolkata,Rudra Mata Airport,BHJ,airport,23.2875,69.670555,BHJ,6.0,1.070733863837312
India,UDR,IN,Asia/Kolkata,Maharana Pratap Airport,UDR,airport,24.61919,73.891266,UDR,14.0,1.1839080459770115
India,JDH,IN,Asia/Kolkata,Jodhpur Airport,JDH,airport,26.263948,73.05055,JDH,10.0,1.1273209549071619
India,IXD,IN,Asia/Kolkata,Bamrauli Airport,IXD,airport,25.439722,81.736115,IXD,4.0,1.0424403183023874
India,IXR,IN,Asia/Kolkata,Birsa Munda Airport,IXR,airport,23.318192,85.32285,IXR,17.0,1.2263483642793989
India,PAT,IN,Asia/Kolkata,Jay Prakash Narayan International Airport,PAT,airport,25.59489,85.09067,PAT,23.0,1.3112290008841734
India,GAU,IN,Asia/Kolkata,Lokpriya Gopinath Bordoloi International Airport,GAU,airport,26.105982,91.58881,GAU,78.0,2.0893015030946067
India,IXA,IN,Asia/Kolkata,Agartala Airport,IXA,airport,23.8926,91.244514,IXA,22.0,1.297082228116711
India,IXC,IN,Asia/Kolkata,Chandigarh Airport,IXC,airport,30.674921,76.797386,IXC,20.0,1.268788682581786
India,BBI,IN,Asia/Kolkata,Biju Patnaik International Airport,BBI,airport,20.252853,85.81738,BBI,34.0,1.46684350132626
India,IXM,IN,Asia/Kolkata,Madurai Airport,IXM,airport,9.837471,78.09112,IXM,14.0,1.1839080459770115
India,VNS,IN,Asia/Kolkata,Lal Bahadur Shastri International Airport,VNS,airport,25.449697,82.85373,VNS,29.0,1.396109637488948
India,IXU,IN,Asia/Kolkata,Chikkalthana Airport,IXU,airport,19.866465,75.39721,IXU,14.0,1.1839080459770115
India,DHM,IN,Asia/Kolkata,Gaggal Airport,DHM,airport,32.3,76.26667,DHM,2.0,1.0141467727674625
India,STV,IN,Asia/Kolkata,Surat Gujarat Airport,STV,airport,21.117659,72.745255,STV,6.0,1.070733863837312
India,BHO,IN,Asia/Kolkata,Raja Bhoj Airport,BHO,airport,23.284761,77.34177,BHO,30.0,1.4102564102564101
India,IXE,IN,Asia/Kolkata,Mangalore Airport,IXE,airport,12.963543,74.890144,IXE,32.0,1.438549955791335
India,PNQ,IN,Asia/Kolkata,Pune Airport,PNQ,airport,18.581388,73.920555,PNQ,80.0,2.117595048629531
India,DEL,IN,Asia/Kolkata,Indira Gandhi International Airport,DEL,airport,28.556555,77.10079,DEL,567.0,9.00707338638373
India,BLR,IN,Asia/Kolkata,Kempegowda International Airport,BLR,airport,13.198889,77.70556,BLR,211.0,3.970822281167109
India,GOP,IN,Asia/Kolkata,Gorakhpur Airport,GOP,airport,26.746862,83.44376,GOP,4.0,1.0424403183023874
India,IMF,IN,Asia/Kolkata,Imphal Municipal Airport,IMF,airport,24.76457,93.897064,IMF,26.0,1.3536693191865605
India,MAA,IN,Asia/Kolkata,Chennai Airport,MAA,airport,12.982267,80.16378,MAA,240.0,4.381078691423519
India,TEZ,IN,Asia/Kolkata,Tezpur Airport,TEZ,airport,26.710833,92.79611,TEZ,4.0,1.0424403183023874
India,CJB,IN,Asia/Kolkata,Coimbatore International Airport,CJB,airport,11.031026,77.03893,CJB,38.0,1.5234305923961098
India,RJA,IN,Asia/Kolkata,Rajahmundry Airport,RJA,airport,17.109638,81.82081,RJA,10.0,1.1273209549071619
India,BOM,IN,Asia/Kolkata,Chhatrapati Shivaji International Airport,BOM,airport,19.095509,72.87497,BOM,489.0,7.903625110521662
India,IXI,IN,Asia/Kolkata,Lilabari Airport,IXI,airport,27.290277,94.08889,IXI,3.0,1.028293545534925
India,TCR,IN,Asia/Kolkata,Tuticorin Airport,TCR,airport,8.716667,78.03333,TCR,2.0,1.0141467727674625
India,SHL,IN,Asia/Kolkata,Shillong Airport,SHL,airport,25.566668,91.88333,SHL,4.0,1.0424403183023874
India,VTZ,IN,Asia/Kolkata,Vishakhapatnam Airport,VTZ,airport,17.728151,83.22675,VTZ,44.0,1.608311229000884
India,DED,IN,Asia/Kolkata,Dehra Dun Airport,DED,airport,30.316668,78.03333,DED,12.0,1.1556145004420866
India,GWL,IN,Asia/Kolkata,Gwalior Airport,GWL,airport,26.293888,78.23,GWL,4.0,1.0424403183023874
India,COK,IN,Asia/Kolkata,Cochin International Airport,COK,airport,10.155644,76.39053,COK,121.0,2.697612732095491
India,SXR,IN,Asia/Kolkata,Srinagar International Airport,SXR,airport,34.002308,74.762634,SXR,38.0,1.5234305923961098
India,TRV,IN,Asia/Kolkata,Trivandrum International Airport,TRV,airport,8.476126,76.91907,TRV,82.0,2.1458885941644565
India,CCU,IN,Asia/Kolkata,Netaji Subhas Chandra Bose Airport,CCU,airport,22.64531,88.43931,CCU,216.0,4.041556145004421
India,AGX,IN,Asia/Kolkata,Agatti Island Airport,AGX,airport,10.828967,72.17987,AGX,2.0,1.0141467727674625
India,ATQ,IN,Asia/Kolkata,Sri Guru Ram Dass Jee International Airport,ATQ,airport,31.706741,74.8073,ATQ,28.0,1.3819628647214854
India,NDC,IN,Asia/Kolkata,Nanded,NDC,airport,19.183332,77.316666,NDC,4.0,1.0424403183023874
India,JAI,IN,Asia/Kolkata,Jaipur Airport,JAI,airport,26.820772,75.80151,JAI,43.0,1.5941644562334218
India,DIU,IN,Asia/Kolkata,Diu Airport,DIU,airport,20.716667,70.916664,DIU,4.0,1.0424403183023874
India,RAJ,IN,Asia/Kolkata,Civil Airport,RAJ,airport,22.308674,70.78235,RAJ,6.0,1.070733863837312
India,TRZ,IN,Asia/Kolkata,Tiruchirapalli International Airport,TRZ,airport,10.762168,78.70724,TRZ,24.0,1.3253757736516358
India,AJL,IN,Asia/Kolkata,Aizawl Airport,AJL,airport,23.838985,92.62482,AJL,14.0,1.1839080459770115
India,CCJ,IN,Asia/Kolkata,Calicut International Airport,CCJ,airport,11.14025,75.950584,CCJ,62.0,1.8629531388152079
India,JLR,IN,Asia/Kolkata,Jabalpur Airport,JLR,airport,22.666668,79.925,JLR,4.0,1.0424403183023874
India,DMU,IN,Asia/Kolkata,Dimapur Airport,DMU,airport,25.879816,93.772865,DMU,13.0,1.169761273209549
India,LKO,IN,Asia/Kolkata,Chaudhary Charan Singh International Airport,LKO,airport,26.764257,80.884186,LKO,42.0,1.5800176834659592
India,RPR,IN,Asia/Kolkata,Swami Vivekananda Airport,RPR,airport,21.18456,81.73975,RPR,34.0,1.46684350132626
India,JGA,IN,Asia/Kolkata,Govardhanpur Airport,JGA,airport,22.463333,70.01195,JGA,2.0,1.0141467727674625
India,IXZ,IN,Asia/Kolkata,Port Blair Airport,IXZ,airport,11.650083,92.73227,IXZ,24.0,1.3253757736516358
India,VGA,IN,Asia/Kolkata,Vijayawada Airport,VGA,airport,16.529444,80.79722,VGA,12.0,1.1556145004420866
India,BHU,IN,Asia/Kolkata,Bhavnagar Airport,BHU,airport,21.755,72.18444,BHU,6.0,1.070733863837312
India,IXJ,IN,Asia/Kolkata,Satwari Airport,IXJ,airport,32.68077,74.84283,IXJ,32.0,1.438549955791335
India,GAY,IN,Asia/Kolkata,Gaya Airport,GAY,airport,24.746668,84.94583,GAY,10.0,1.1273209549071619
India,BDQ,IN,Asia/Kolkata,Vadodara Airport,BDQ,airport,22.329077,73.2157,BDQ,17.0,1.2263483642793989
India,IXB,IN,Asia/Kolkata,Bagdogra Airport,IXB,airport,26.68488,88.324814,IXB,30.0,1.4102564102564101
India,HJR,IN,Asia/Kolkata,Khajuraho Airport,HJR,airport,24.818747,79.91642,HJR,6.0,1.070733863837312
India,NAG,IN,Asia/Kolkata,Dr. Babasaheb Ambedkar International Airport,NAG,airport,21.090036,79.05636,NAG,32.0,1.438549955791335
India,JRH,IN,Asia/Kolkata,Rowriah Airport,JRH,airport,26.734484,94.1849,JRH,10.0,1.1273209549071619
India,KNU,IN,Asia/Kolkata,Kanpur Airport,KNU,airport,26.402779,80.4125,KNU,6.0,1.070733863837312
India,IDR,IN,Asia/Kolkata,Devi Ahilya Bai Holkar Airport,IDR,airport,22.728651,75.80944,IDR,46.0,1.636604774535809
India,IXL,IN,Asia/Kolkata,Leh Airport,IXL,airport,34.14035,77.54746,IXL,14.0,1.1839080459770115
India,IXS,IN,Asia/Kolkata,Kumbhirgram Airport,IXS,airport,24.916018,92.979256,IXS,18.0,1.240495137046861
India,TIR,IN,Asia/Kolkata,Tirupati Airport,TIR,airport,13.635721,79.54293,TIR,12.0,1.1556145004420866
India,GOI,IN,Asia/Kolkata,Dabolim Airport,GOI,airport,15.384534,73.83983,GOI,51.0,1.707338638373121
India,AMD,IN,Asia/Kolkata,Ahmedabad Airport,AMD,airport,23.06639,72.62417,AMD,71.0,1.9902740937223697
Kuwait,KWI,KW,Asia/Kuwait,Kuwait International Airport,KWI,airport,29.240116,47.971252,KWI,228.0,4.211317418213969
Gabon,LBV,GA,Africa/Libreville,Libreville Airport,LBV,airport,0.456963,9.409852,LBV,43.0,1.5941644562334218
Comoros,YVA,KM,Indian/Comoro,Prince Said Ibrahim Internatonal Airport,HAH,airport,-11.537275,43.27492,HAH,14.0,1.1839080459770115
Argentina,JUJ,AR,America/Argentina/Jujuy,El Cadillal Airport,JUJ,airport,-24.4,-65.083336,JUJ,6.0,1.070733863837312
Argentina,LUQ,AR,America/Argentina/San_Luis,San Luis Airport,LUQ,airport,-33.274445,-66.35861,LUQ,6.0,1.070733863837312
Argentina,NQN,AR,America/Argentina/Salta,Presidente Peron International Airport,NQN,airport,-38.95,-68.15222,NQN,15.0,1.198054818744474
Argentina,MDQ,AR,America/Argentina/Buenos_Aires,Mar Del Plata Airport,MDQ,airport,-37.934723,-57.572224,MDQ,6.0,1.070733863837312
Argentina,SDE,AR,America/Argentina/Cordoba,Santiago Del Estero Airport,SDE,airport,-27.765278,-64.32222,SDE,2.0,1.0141467727674625
Argentina,PSS,AR,America/Argentina/Cordoba,Posadas Airport,PSS,airport,-27.383888,-55.9675,PSS,4.0,1.0424403183023874
Argentina,PMY,AR,America/Argentina/Catamarca,El Tehuelche,PMY,airport,-42.733334,-65.066666,PMY,2.0,1.0141467727674625
Argentina,EQS,AR,America/Argentina/Catamarca,Esquel Airport,EQS,airport,-42.90972,-71.1425,EQS,2.0,1.0141467727674625
Argentina,UAQ,AR,America/Argentina/San_Juan,San Juan Airport,UAQ,airport,-31.55,-68.51667,UAQ,5.0,1.0565870910698496
Argentina,RES,AR,America/Argentina/Cordoba,Resistencia Airport,RES,airport,-27.45139,-59.050835,RES,4.0,1.0424403183023874
Argentina,USH,AR,America/Argentina/Ushuaia,Malvinas Argentinas International Airport,USH,airport,-54.839348,-68.31245,USH,22.0,1.297082228116711
Argentina,BRC,AR,America/Argentina/Salta,San Carlos de Bariloche International Airport,BRC,airport,-41.145966,-71.16109,BRC,14.0,1.1839080459770115
Argentina,IGR,AR,America/Argentina/Cordoba,Cataratas del Iguazu International Airport,IGR,airport,-25.731504,-54.47635,IGR,12.0,1.1556145004420866
Argentina,RSA,AR,America/Argentina/Salta,Santa Rosa Airport,RSA,airport,-36.566666,-64.26667,RSA,2.0,1.0141467727674625
Argentina,CNQ,AR,America/Argentina/Cordoba,Camba Punta Airport,CNQ,airport,-27.449722,-58.762222,CNQ,4.0,1.0424403183023874
Argentina,FMA,AR,America/Argentina/Cordoba,El Pucu Airport,FMA,airport,-26.212778,-58.235,FMA,2.0,1.0141467727674625
Argentina,VDM,AR,America/Argentina/Salta,Gobernador Edgardo Castello Airport,VDM,airport,-40.85,-63.016666,VDM,2.0,1.0141467727674625
Argentina,SFN,AR,America/Argentina/Cordoba,Santa Fe Airport,SFN,airport,-31.716667,-60.816666,SFN,5.0,1.0565870910698496
Argentina,COR,AR,America/Argentina/Cordoba,Ingeniero Aeronautico Ambrosio L.V. Taravella International Airport,COR,airport,-31.31548,-64.21377,COR,24.0,1.3253757736516358
Argentina,SLA,AR,America/Argentina/Salta,Martin Miguel de Guemes International Airport,SLA,airport,-24.844217,-65.47849,SLA,16.0,1.2122015915119364
Argentina,FTE,AR,America/Argentina/Rio_Gallegos,El Calafate Airport,FTE,airport,-50.284225,-72.053696,FTE,23.0,1.3112290008841734
Argentina,MDZ,AR,America/Argentina/Mendoza,El Plumerillo International Airport,MDZ,airport,-32.82789,-68.79891,MDZ,26.0,1.3536693191865605
Argentina,BUE,AR,America/Argentina/Buenos_Aires,Jorge Newbery Airport,AEP,airport,-34.55622,-58.41667,AEP,185.0,3.603006189213086
Argentina,AFA,AR,America/Argentina/Mendoza,San Rafael Airport,AFA,airport,-34.58917,-68.40056,AFA,4.0,1.0424403183023874
Argentina,BHI,AR,America/Argentina/Buenos_Aires,Comandante Airport,BHI,airport,-38.730556,-62.150555,BHI,12.0,1.1556145004420866
Argentina,IRJ,AR,America/Argentina/La_Rioja,La Rioja Airport,IRJ,airport,-29.383333,-66.78333,IRJ,2.0,1.0141467727674625
Argentina,ROS,AR,America/Argentina/Cordoba,Fisherton Airport,ROS,airport,-32.933334,-60.783333,ROS,13.0,1.169761273209549
Argentina,RHD,AR,America/Argentina/Cordoba,Rio Hondo Airport,RHD,airport,-27.533333,-64.95,RHD,2.0,1.0141467727674625
Argentina,CPC,AR,America/Argentina/Salta,Chapelco Airport,CPC,airport,-40.066666,-71.13333,CPC,2.0,1.0141467727674625
Argentina,BUE,AR,America/Argentina/Buenos_Aires,Ministro Pistarini Airport,EZE,airport,-34.81273,-58.539833,EZE,143.0,3.008841732979664
Argentina,RGL,AR,America/Argentina/Rio_Gallegos,Rio Gallegos Internacional Airport,RGL,airport,-51.61667,-69.28333,RGL,10.0,1.1273209549071619
Argentina,REL,AR,America/Argentina/Catamarca,Trelew Airport,REL,airport,-43.233334,-65.32333,REL,15.0,1.198054818744474
Argentina,CTC,AR,America/Argentina/Catamarca,Catamarca Airport,CTC,airport,-28.448334,-65.779724,CTC,2.0,1.0141467727674625
Argentina,RGA,AR,America/Argentina/Ushuaia,Rio Grande Airport,RGA,airport,-53.779167,-67.75,RGA,2.0,1.0141467727674625
Argentina,CRD,AR,America/Argentina/Catamarca,General E. Mosconi International Airport,CRD,airport,-45.787224,-67.462776,CRD,14.0,1.1839080459770115
Aruba,AUA,AW,America/Aruba,Reina Beatrix International Airport,AUA,airport,12.502222,-70.013885,AUA,67.0,1.93368700265252
Christmas Island,XCH,CX,Indian/Christmas,Christmas Island Airport,XCH,airport,-10.5,105.666664,XCH,4.0,1.0424403183023874
Armenia,LWN,AM,Asia/Yerevan,Leninakan Airport,LWN,airport,40.716667,43.833332,LWN,6.0,1.070733863837312
Armenia,EVN,AM,Asia/Yerevan,Zvartnots International Airport,EVN,airport,40.15272,44.39805,EVN,127.0,2.7824933687002655
Singapore,SIN,SG,Asia/Singapore,Changi International Airport,SIN,airport,1.361173,103.990204,SIN,836.0,12.812555260831124
Norfolk Island,NLK,NF,Pacific/Norfolk,Norfolk Island Airport,NLK,airport,-29.0425,167.93944,NLK,6.0,1.070733863837312
Antigua and Barbuda,ANU,AG,America/Antigua,V.C. Bird International Airport,ANU,airport,17.108334,-61.76389,ANU,60.0,1.834659593280283
Saint Vincent and the Grenadines,SVD,VC,America/St_Vincent,Argyle International Airport,SVD,airport,13.14604,-61.21038,SVD,8.0,1.099027409372237
Denmark,AAR,DK,Europe/Copenhagen,Aarhus Airport,AAR,airport,56.30823,10.626351,AAR,20.0,1.268788682581786
Denmark,BLL,DK,Europe/Copenhagen,Billund Airport,BLL,airport,55.747383,9.147874,BLL,88.0,2.230769230769231
Denmark,AAL,DK,Europe/Copenhagen,Aalborg Airport,AAL,airport,57.08655,9.872241,AAL,28.0,1.3819628647214854
Denmark,KRP,DK,Europe/Copenhagen,Karup Airport,KRP,airport,56.3,9.116667,KRP,2.0,1.0141467727674625
Denmark,CPH,DK,Europe/Copenhagen,Copenhagen Airport,CPH,airport,55.62905,12.647601,CPH,479.0,7.762157382847038
Denmark,EBJ,DK,Europe/Copenhagen,Esbjerg Airport,EBJ,airport,55.52143,8.549062,EBJ,2.0,1.0141467727674625
Egypt,LXR,EG,Africa/Cairo,Luxor International Airport,LXR,airport,25.67492,32.699684,LXR,36.0,1.4951370468611849
Egypt,RMF,EG,Africa/Cairo,Marsa Alam International Airport,RMF,airport,25.555786,34.592777,RMF,20.0,1.268788682581786
Egypt,ABS,EG,Africa/Cairo,Abu Simbel,ABS,airport,22.367567,31.609774,ABS,3.0,1.028293545534925
Egypt,ALY,EG,Africa/Cairo,Borg El Arab Airport,HBE,airport,30.922234,29.686504,HBE,71.0,1.9902740937223697
Egypt,ATZ,EG,Africa/Cairo,Assiut Airport,ATZ,airport,27.033333,31.0,ATZ,12.0,1.1556145004420866
Egypt,HMB,EG,Africa/Cairo,Mubarak International Airport,HMB,airport,26.338877,31.737167,HMB,15.0,1.198054818744474
Egypt,CAI,EG,Africa/Cairo,Cairo International Airport,CAI,airport,30.120106,31.40647,CAI,320.0,5.512820512820513
Egypt,HRG,EG,Africa/Cairo,Hurghada International Airport,HRG,airport,27.189156,33.8055,HRG,91.0,2.273209549071618
Egypt,ASW,EG,Africa/Cairo,Aswan Airport,ASW,airport,23.968021,32.824818,ASW,6.0,1.070733863837312
Egypt,SSH,EG,Africa/Cairo,Sharm El Sheikh Airport,SSH,airport,27.979357,34.385254,SSH,113.0,2.5844385499557916
French Polynesia,RFP,PF,Pacific/Tahiti,Raiatea Airport,RFP,airport,-16.725004,-151.46666,RFP,9.0,1.1131741821396994
French Polynesia,PPT,PF,Pacific/Tahiti,Tahiti Faa'a Airport,PPT,airport,-17.55963,-149.60938,PPT,79.0,2.103448275862069
French Polynesia,HUH,PF,Pacific/Tahiti,Huahine Airport,HUH,airport,-16.689682,-151.02826,HUH,8.0,1.099027409372237
French Polynesia,FAV,PF,Pacific/Tahiti,Fakarava Airport,FAV,airport,-16.053486,-145.65225,FAV,5.0,1.0565870910698496
French Polynesia,AXR,PF,Pacific/Tahiti,Arutua Airport,AXR,airport,-15.25,-146.75,AXR,2.0,1.0141467727674625
French Polynesia,RGI,PF,Pacific/Tahiti,Rangiroa Airport,RGI,airport,-14.956334,-147.65915,RGI,11.0,1.1414677276746241
French Polynesia,MOZ,PF,Pacific/Tahiti,Temae Airport,MOZ,airport,-17.490433,-149.76414,MOZ,7.0,1.0848806366047745
French Polynesia,AUQ,PF,Pacific/Marquesas,Hiva Oa Airport,AUQ,airport,-9.769324,-139.00978,AUQ,8.0,1.099027409372237
French Polynesia,KKR,PF,Pacific/Tahiti,Kaukura Atoll Airport,KKR,airport,-15.783333,-146.66667,KKR,2.0,1.0141467727674625
French Polynesia,BOB,PF,Pacific/Tahiti,Motu Mute Airport,BOB,airport,-16.446207,-151.75447,BOB,12.0,1.1556145004420866
French Polynesia,TIH,PF,Pacific/Tahiti,Tikehau Atoll Airport,TIH,airport,-15.118639,-148.2338,TIH,6.0,1.070733863837312
Cameroon,MVR,CM,Africa/Douala,Salam,MVR,airport,10.452222,14.256389,MVR,3.0,1.028293545534925
Cameroon,YAO,CM,Africa/Douala,Nsimalen Airport,NSI,airport,3.702222,11.550278,NSI,30.0,1.4102564102564101
Cameroon,DLA,CM,Africa/Douala,Douala Airport,DLA,airport,4.01346,9.717018,DLA,85.0,2.1883289124668437
Cameroon,GOU,CM,Africa/Douala,Garoua Airport,GOU,airport,9.336111,13.375556,GOU,4.0,1.0424403183023874
Namibia,WVB,,Africa/Windhoek,Rooikop Airport,WVB,airport,-22.978611,14.517222,WVB,6.0,1.070733863837312
Namibia,WDH,,Africa/Windhoek,Eros Airport,ERS,airport,-22.616667,17.083332,ERS,4.0,1.0424403183023874
Namibia,OND,,Africa/Windhoek,Ondangwa Airport,OND,airport,-17.885496,15.942233,OND,2.0,1.0141467727674625
Namibia,LUD,,Africa/Windhoek,Luderitz Airport,LUD,airport,-26.68639,15.243889,LUD,2.0,1.0141467727674625
Namibia,OMD,,Africa/Windhoek,Oranjemund Airport,OMD,airport,-28.583332,16.45,OMD,2.0,1.0141467727674625
Namibia,WDH,,Africa/Windhoek,Hosea Kutako International Airport,WDH,airport,-22.487345,17.463202,WDH,37.0,1.509283819628647
Guinea-Bissau,OXB,GW,Africa/Bissau,Osvaldo Vieira Airport,OXB,airport,11.888889,-15.657222,OXB,10.0,1.1273209549071619
São Tomé and Príncipe,TMS,ST,Africa/Sao_Tome,Sao Tome Island Airport,TMS,airport,0.378333,6.725,TMS,9.0,1.1131741821396994
North Korea,FNJ,KP,Asia/Pyongyang,Pyongyang Sunan International Airport,FNJ,airport,39.2,125.666664,FNJ,12.0,1.1556145004420866
Angola,MSZ,AO,Africa/Luanda,Yuri Gagarin Airport,MSZ,airport,-15.208611,12.160833,MSZ,2.0,1.0141467727674625
Angola,CBT,AO,Africa/Luanda,Catumbela Airport,CBT,airport,-12.483333,13.483333,CBT,6.0,1.070733863837312
Angola,LAD,AO,Africa/Luanda,Quatro de Fevereiro Airport,LAD,airport,-8.847951,13.234862,LAD,88.0,2.230769230769231
Angola,VHC,AO,Africa/Luanda,Saurimo,VHC,airport,-9.75,20.55,VHC,4.0,1.0424403183023874
Angola,SDD,AO,Africa/Luanda,Lubango Airport,SDD,airport,-14.924444,13.576667,SDD,8.0,1.099027409372237
Angola,NOV,AO,Africa/Luanda,Huambo,NOV,airport,-12.805556,15.757222,NOV,4.0,1.0424403183023874
Angola,CAB,AO,Africa/Luanda,Cabinda Airport,CAB,airport,-5.583333,12.2,CAB,2.0,1.0141467727674625
Sudan,ELF,SD,Africa/Khartoum,El Fasher Airport,ELF,airport,13.616667,25.316668,ELF,4.0,1.0424403183023874
Sudan,EGN,SD,Africa/Khartoum,Geneina Airport,EGN,airport,13.4875,22.469444,EGN,4.0,1.0424403183023874
Sudan,KRT,SD,Africa/Khartoum,Khartoum International Airport,KRT,airport,15.592217,32.549698,KRT,123.0,2.7259062776304157
Sudan,PZU,SD,Africa/Khartoum,Port Sudan Airport,PZU,airport,19.577778,37.21389,PZU,10.0,1.1273209549071619
Botswana,BBK,BW,Africa/Gaborone,Kasane Airport,BBK,airport,-17.816668,25.15,BBK,6.0,1.070733863837312
Botswana,GBE,BW,Africa/Gaborone,Sir Seretse Khama International Airport,GBE,airport,-24.557981,25.92451,GBE,27.0,1.367816091954023
Botswana,FRW,BW,Africa/Gaborone,Francistown Airport,FRW,airport,-21.16,27.4825,FRW,4.0,1.0424403183023874
Botswana,MUB,BW,Africa/Gaborone,Maun Airport,MUB,airport,-19.970833,23.430555,MUB,12.0,1.1556145004420866
Guernsey,GCI,GG,Europe/Guernsey,Guernsey Airport,GCI,airport,49.432755,-2.595044,GCI,44.0,1.608311229000884
United States,PIT,US,America/New_York,Pittsburgh International Airport,PIT,airport,40.49585,-80.25657,PIT,129.0,2.81078691423519
United States,GAL,US,America/Anchorage,Edward G. Pitka Sr. Airport,GAL,airport,64.73798,-156.94186,GAL,12.0,1.1556145004420866
United States,MTJ,US,America/Denver,Montrose Regional Airport,MTJ,airport,38.51029,-107.89696,MTJ,4.0,1.0424403183023874
United States,PDX,US,America/Los_Angeles,Portland International Airport,PDX,airport,45.588997,-122.5929,PDX,254.0,4.579133510167993
United States,CDR,US,America/Denver,Chadron Airport,CDR,airport,42.835,-103.09778,CDR,15.0,1.198054818744474
United States,HVN,US,America/New_York,New Haven Airport,HVN,airport,41.265278,-72.888336,HVN,4.0,1.0424403183023874
United States,GJT,US,America/Denver,Grand Junction Regional Airport,GJT,airport,39.122665,-108.528336,GJT,12.0,1.1556145004420866
United States,CHI,US,America/Chicago,Chicago Midway International Airport,MDW,airport,41.788136,-87.74087,MDW,149.0,3.0937223695844387
United States,ELI,US,America/Nome,Elim Airport,ELI,airport,64.61361,-162.27028,ELI,9.0,1.1131741821396994
United States,CID,US,America/Chicago,The Eastern Iowa Airport,CID,airport,41.889423,-91.7003,CID,28.0,1.3819628647214854
United States,HIB,US,America/Chicago,Chisholm Airport,HIB,airport,47.38861,-92.83861,HIB,4.0,1.0424403183023874
United States,BJI,US,America/Chicago,Bemidji Airport,BJI,airport,47.509724,-94.93472,BJI,4.0,1.0424403183023874
United States,SOW,US,America/Phoenix,Show Low Airport,SOW,airport,34.264442,-110.004166,SOW,12.0,1.1556145004420866
United States,PVU,US,America/Denver,Provo Airport,PVU,airport,40.218056,-111.72222,PVU,2.0,1.0141467727674625
United States,KLW,US,America/Sitka,Klawock Airport,KLW,airport,55.555,-133.1,KLW,4.0,1.0424403183023874
United States,IDA,US,America/Boise,Idaho Falls Regional Airport,IDA,airport,43.514854,-112.06751,IDA,14.0,1.1839080459770115
United States,KTN,US,America/Sitka,Ketchikan International Airport,KTN,airport,55.35655,-131.7087,KTN,45.0,1.6224580017683468
United States,PVC,US,America/New_York,Provincetown Airport,PVC,airport,42.071945,-70.221664,PVC,2.0,1.0141467727674625
United States,SDF,US,America/Kentucky/Louisville,Louisville International Airport,SDF,airport,38.186375,-85.74179,SDF,66.0,1.9195402298850575
United States,CSL,US,America/Los_Angeles,San Luis County Regional Airport,SBP,airport,35.239113,-120.640625,SBP,6.0,1.070733863837312
United States,MKL,US,America/Chicago,Mckellar Airport,MKL,airport,35.60139,-88.915276,MKL,4.0,1.0424403183023874
United States,VEL,US,America/Denver,Vernal Regional Airport,VEL,airport,40.43889,-109.51028,VEL,8.0,1.099027409372237
United States,LRD,US,America/Chicago,Laredo International Airport,LRD,airport,27.543667,-99.455124,LRD,6.0,1.070733863837312
United States,WLK,US,America/Anchorage,Selawik Airport,WLK,airport,66.602776,-159.98334,WLK,4.0,1.0424403183023874
United States,AZO,US,America/Detroit,Kalamazoo Battle Creek International Airport,AZO,airport,42.239964,-85.55656,AZO,6.0,1.070733863837312
United States,FYU,US,America/Anchorage,Fort Yukon Airport,FYU,airport,66.56981,-145.2482,FYU,16.0,1.2122015915119364
United States,HNL,US,Pacific/Honolulu,Honolulu International Airport,HNL,airport,21.325832,-157.92166,HNL,247.0,4.480106100795756
United States,YAK,US,America/Yakutat,Yakutat Airport,YAK,airport,59.509167,-139.65973,YAK,4.0,1.0424403183023874
United States,FCA,US,America/Denver,Glacier Park International Airport,FCA,airport,48.307304,-114.25315,FCA,12.0,1.1556145004420866
United States,LBL,US,America/Chicago,Liberal Municipal Airport,LBL,airport,37.044445,-100.960556,LBL,12.0,1.1556145004420866
United States,CLE,US,America/New_York,Cleveland Hopkins International Airport,CLE,airport,41.410854,-81.83821,CLE,176.0,3.475685234305924
United States,AIY,US,America/New_York,Atlantic City International Airport,ACY,airport,39.450703,-74.572235,ACY,14.0,1.1839080459770115
United States,EAR,US,America/Chicago,Kearney Regional Airport,EAR,airport,40.728333,-98.998886,EAR,8.0,1.099027409372237
United States,TRI,US,America/New_York,Tri-Cities Regional Airport,TRI,airport,36.48111,-82.40785,TRI,12.0,1.1556145004420866
United States,ACV,US,America/Los_Angeles,Arcata-Eureka Airport,ACV,airport,40.970913,-124.106926,ACV,6.0,1.070733863837312
United States,PUB,US,America/Denver,Pueblo Memorial Airport,PUB,airport,38.292778,-104.49611,PUB,12.0,1.1556145004420866
United States,MSS,US,America/New_York,Richards Field,MSS,airport,44.93778,-74.846664,MSS,2.0,1.0141467727674625
United States,CVN,US,America/Denver,Clovis Municipal Airport,CVN,airport,34.427223,-103.07889,CVN,2.0,1.0141467727674625
United States,MKK,US,Pacific/Honolulu,Molokai Airport,MKK,airport,21.152779,-157.1,MKK,21.0,1.2829354553492485
United States,LEB,US,America/New_York,Lebanon Regional Airport,LEB,airport,43.62936,-72.310005,LEB,4.0,1.0424403183023874
United States,PDT,US,America/Los_Angeles,Eastern Oregon Regional Airport,PDT,airport,45.698334,-118.83611,PDT,2.0,1.0141467727674625
United States,BWI,US,America/New_York,Baltimore/Wash International Thurgood Marshall Airport,BWI,airport,39.179527,-76.66894,BWI,216.0,4.041556145004421
United States,MFR,US,America/Los_Angeles,Rogue Valley International-Medford Airport,MFR,airport,42.369026,-122.87312,MFR,24.0,1.3253757736516358
United States,BIS,US,America/Chicago,Bismarck Airport,BIS,airport,46.77448,-100.75821,BIS,12.0,1.1556145004420866
United States,TOL,US,America/New_York,Toledo Express Airport,TOL,airport,41.5925,-83.8069,TOL,4.0,1.0424403183023874
United States,ELD,US,America/Chicago,South Arkansas Regional Airport,ELD,airport,33.220554,-92.81472,ELD,6.0,1.070733863837312
United States,FMN,US,America/Denver,Four Corners Regional Airport,FMN,airport,36.74111,-108.229164,FMN,20.0,1.268788682581786
United States,SAV,US,America/New_York,Savannah/Hilton Head Airport,SAV,airport,32.1358,-81.21059,SAV,28.0,1.3819628647214854
United States,AUS,US,America/Chicago,Austin-Bergstrom International Airport,AUS,airport,30.202545,-97.66706,AUS,129.0,2.81078691423519
United States,GGW,US,America/Denver,Glasgow International Airport,GGW,airport,48.212776,-106.615555,GGW,3.0,1.028293545534925
United States,CPR,US,America/Denver,Casper/Natrona County International Airport,CPR,airport,42.90861,-106.4625,CPR,4.0,1.0424403183023874
United States,EYW,US,America/New_York,Key West International Airport,EYW,airport,24.553574,-81.75501,EYW,20.0,1.268788682581786
United States,CLT,US,America/New_York,Charlotte Douglas International Airport,CLT,airport,35.219166,-80.93584,CLT,525.0,8.412908930150309
United States,BFL,US,America/Los_Angeles,Meadows Field Airport,BFL,airport,35.429626,-119.04533,BFL,10.0,1.1273209549071619
United States,KKA,US,America/Anchorage,Koyuk Airport,KKA,airport,64.939445,-161.15,KKA,10.0,1.1273209549071619
United States,LBF,US,America/Chicago,Lee Bird Field,LBF,airport,41.128334,-100.69667,LBF,2.0,1.0141467727674625
United States,DLH,US,America/Chicago,Duluth International Airport,DLH,airport,46.838974,-92.18019,DLH,10.0,1.1273209549071619
United States,OME,US,America/Nome,Nome Airport,OME,airport,64.51139,-165.44167,OME,49.0,1.6790450928381961
United States,SDY,US,America/Denver,Richland Municipal Airport,SDY,airport,47.706944,-104.19194,SDY,4.0,1.0424403183023874
United States,ATY,US,America/Chicago,Watertown Airport,ATY,airport,44.90889,-97.15417,ATY,2.0,1.0141467727674625
United States,CHO,US,America/New_York,Charlottesville Albemarle Airport,CHO,airport,38.139416,-78.44928,CHO,14.0,1.1839080459770115
United States,BHB,US,America/New_York,Bar Harbor Airport,BHB,airport,44.44889,-68.361664,BHB,2.0,1.0141467727674625
United States,ESD,US,America/Los_Angeles,Orcas Island Airport,ESD,airport,48.708332,-122.9125,ESD,4.0,1.0424403183023874
United States,IPT,US,America/New_York,Lycoming County Airport,IPT,airport,41.24222,-76.920555,IPT,4.0,1.0424403183023874
United States,ELP,US,America/Denver,El Paso International Airport,ELP,airport,31.798948,-106.396,ELP,41.0,1.565870910698497
United States,SAN,US,America/Los_Angeles,San Diego International Airport,SAN,airport,32.731937,-117.19731,SAN,178.0,3.503978779840849
United States,ANC,US,America/Anchorage,Ted Stevens Anchorage International Airport,ANC,airport,61.174442,-149.99638,ANC,118.0,2.655172413793103
United States,MOD,US,America/Los_Angeles,Modesto Municipal Airport,MOD,airport,37.626945,-120.95528,MOD,2.0,1.0141467727674625
United States,JST,US,America/New_York,Cambria County Airport,JST,airport,40.316666,-78.83444,JST,4.0,1.0424403183023874
United States,CSG,US,America/New_York,Columbus Airport,CSG,airport,32.466667,-84.98333,CSG,4.0,1.0424403183023874
United States,RIW,US,America/Denver,Riverton Airport,RIW,airport,43.064445,-108.45695,RIW,2.0,1.0141467727674625
United States,HHH,US,America/New_York,Hilton Head Airport,HHH,airport,32.216667,-80.683334,HHH,4.0,1.0424403183023874
United States,FAY,US,America/New_York,Fayetteville Regional Airport,FAY,airport,34.99132,-78.88722,FAY,10.0,1.1273209549071619
United States,MCK,US,America/Chicago,Mc Cook Airport,MCK,airport,40.26389,-100.66805,MCK,12.0,1.1556145004420866
United States,JAN,US,America/Chicago,Jackson-Evers International Airport,JAN,airport,32.309895,-90.07496,JAN,24.0,1.3253757736516358
United States,PAH,US,America/Chicago,Barkley Regional Airport,PAH,airport,37.06111,-88.7725,PAH,2.0,1.0141467727674625
United States,IRK,US,America/Chicago,Kirksville Municipal Airport,IRK,airport,40.0925,-92.54389,IRK,2.0,1.0141467727674625
United States,VDZ,US,America/Anchorage,Valdez Municipal Airport,VDZ,airport,61.1325,-146.23889,VDZ,6.0,1.070733863837312
United States,AOO,US,America/New_York,Altoona Airport,AOO,airport,40.297222,-78.32,AOO,4.0,1.0424403183023874
United States,SYR,US,America/New_York,Hancock International Airport,SYR,airport,43.113983,-76.11223,SYR,46.0,1.636604774535809
United States,ORL,US,America/New_York,Orlando Sanford International Airport,SFB,airport,28.775118,-81.2432,SFB,88.0,2.230769230769231
United States,SNP,US,America/Anchorage,Saint Paul Island Airport,SNP,airport,57.15222,-170.21722,SNP,8.0,1.099027409372237
United States,DSM,US,America/Chicago,Des Moines International Airport,DSM,airport,41.532433,-93.64809,DSM,48.0,1.664898320070734
United States,FAT,US,America/Los_Angeles,Fresno Yosemite International Airport,FAT,airport,36.769623,-119.72024,FAT,42.0,1.5800176834659592
United States,LAN,US,America/Detroit,Capital Region International Airport,LAN,airport,42.774185,-84.58958,LAN,10.0,1.1273209549071619
United States,BGR,US,America/New_York,Bangor International Airport,BGR,airport,44.812298,-68.82102,BGR,14.0,1.1839080459770115
United States,EAT,US,America/Los_Angeles,Pangborn Field,EAT,airport,47.399723,-120.20778,EAT,4.0,1.0424403183023874
United States,JAX,US,America/New_York,Jacksonville International Airport,JAX,airport,30.491657,-81.68306,JAX,72.0,2.004420866489832
United States,KGX,US,America/Anchorage,Grayling Airport,KGX,airport,62.89528,-160.0625,KGX,4.0,1.0424403183023874
United States,COD,US,America/Denver,Yellowstone Regional Airport,COD,airport,44.515835,-109.0275,COD,4.0,1.0424403183023874
United States,ABE,US,America/New_York,Lehigh Valley International Airport,ABE,airport,40.651573,-75.434364,ABE,22.0,1.297082228116711
United States,PKA,US,America/Anchorage,Napaskiak Sea Plane Base,PKA,airport,60.710835,-161.75806,PKA,2.0,1.0141467727674625
United States,SAN,US,America/Los_Angeles,McClellan-Palomar Airport,CLD,airport,33.11667,-117.26667,CLD,2.0,1.0141467727674625
United States,TPA,US,America/New_York,St. Petersburg-Clearwater International Airport,PIE,airport,27.912004,-82.69511,PIE,48.0,1.664898320070734
United States,MOB,US,America/Chicago,Mobile Regional Airport,MOB,airport,30.681086,-88.24475,MOB,12.0,1.1556145004420866
United States,IRC,US,America/Anchorage,Circle City,IRC,airport,65.82917,-144.06389,IRC,2.0,1.0141467727674625
United States,LNY,US,Pacific/Honolulu,Lanai Airport,LNY,airport,20.790085,-156.95049,LNY,13.0,1.169761273209549
United States,TLH,US,America/New_York,Tallahassee International Airport,TLH,airport,30.395782,-84.34444,TLH,20.0,1.268788682581786
United States,CAK,US,America/New_York,Akron-Canton Airport,CAK,airport,40.914963,-81.43583,CAK,28.0,1.3819628647214854
United States,TUL,US,America/Chicago,Tulsa International Airport,TUL,airport,36.189808,-95.8901,TUL,53.0,1.735632183908046
United States,PBG,US,America/New_York,Plattsburgh International Airport,PBG,airport,44.7,-73.48333,PBG,10.0,1.1273209549071619
United States,NYC,US,America/New_York,Newark Liberty International Airport,EWR,airport,40.68907,-74.17876,EWR,519.0,8.328028293545536
United States,CNY,US,America/Denver,Canyonlands Field,CNY,airport,38.759445,-109.74611,CNY,12.0,1.1556145004420866
United States,MLB,US,America/New_York,Orlando Melbourne International Airport,MLB,airport,28.1025,-80.63028,MLB,6.0,1.070733863837312
United States,RST,US,America/Chicago,Rochester International Airport,RST,airport,43.910793,-92.48977,RST,4.0,1.0424403183023874
United States,HOT,US,America/Chicago,Memorial Field,HOT,airport,34.47889,-93.09611,HOT,6.0,1.070733863837312
United States,EEK,US,America/Nome,Eek Airport,EEK,airport,60.216667,-162.01666,EEK,4.0,1.0424403183023874
United States,ACK,US,America/New_York,Nantucket Memorial Airport,ACK,airport,41.256668,-70.05972,ACK,13.0,1.169761273209549
United States,JBR,US,America/Chicago,Jonesboro Airport,JBR,airport,35.83,-90.64833,JBR,2.0,1.0141467727674625
United States,HON,US,America/Chicago,Howes,HON,airport,44.38361,-98.22639,HON,8.0,1.099027409372237
United States,UBS,US,America/Chicago,Golden Triangle Regional Airport,GTR,airport,33.45,-88.6,GTR,2.0,1.0141467727674625
United States,MRY,US,America/Los_Angeles,Monterey Regional Airport,MRY,airport,36.587296,-121.850815,MRY,20.0,1.268788682581786
United States,MIA,US,America/New_York,Miami International Airport,MIA,airport,25.796,-80.27824,MIA,516.0,8.285587975243148
United States,BLI,US,America/Los_Angeles,Bellingham International Airport,BLI,airport,48.795734,-122.53267,BLI,18.0,1.240495137046861
United States,NUL,US,America/Anchorage,Nulato Airport,NUL,airport,64.727776,-158.07666,NUL,7.0,1.0848806366047745
United States,DEN,US,America/Denver,Denver International Airport,DEN,airport,39.84939,-104.672844,DEN,896.0,13.661361626878868
United States,FNL,US,America/Denver,Municipalcipal Airport,FNL,airport,40.583332,-105.083336,FNL,4.0,1.0424403183023874
United States,GUC,US,America/Denver,Gunnison Airport,GUC,airport,38.53389,-106.93889,GUC,4.0,1.0424403183023874
United States,DDC,US,America/Chicago,Dodge City Municipal Airport,DDC,airport,37.761665,-99.965,DDC,12.0,1.1556145004420866
United States,ABY,US,America/New_York,Southwest Georgia Regional Airport,ABY,airport,31.532223,-84.19611,ABY,2.0,1.0141467727674625
United States,ILM,US,America/New_York,Wilmington International Airport,ILM,airport,34.26705,-77.91063,ILM,20.0,1.268788682581786
United States,SWF,US,America/New_York,Stewart International Airport,SWF,airport,41.49843,-74.10104,SWF,10.0,1.1273209549071619
United States,CHA,US,America/New_York,Chattanooga Airport,CHA,airport,35.036926,-85.197784,CHA,22.0,1.297082228116711
United States,EMK,US,America/Nome,Emmonak Airport,EMK,airport,62.776943,-164.52083,EMK,8.0,1.099027409372237
United States,HVR,US,America/Denver,Havre City County Airport,HVR,airport,48.544445,-109.76111,HVR,2.0,1.0141467727674625
United States,LIT,US,America/Chicago,Bill and Hillary Clinton National Airport,LIT,airport,34.727432,-92.221375,LIT,41.0,1.565870910698497
United States,LGB,US,America/Los_Angeles,Long Beach Airport,LGB,airport,33.818195,-118.14449,LGB,40.0,1.5517241379310345
United States,BZN,US,America/Denver,Bozeman Yellowstone International Airport,BZN,airport,45.777687,-111.16033,BZN,24.0,1.3253757736516358
United States,DRO,US,America/Denver,Durango-La Plata County Airport,DRO,airport,37.15995,-107.751076,DRO,8.0,1.099027409372237
United States,YKM,US,America/Los_Angeles,Yakima Air Terminal,YKM,airport,46.566944,-120.53778,YKM,6.0,1.070733863837312
United States,NYC,US,America/New_York,John F. Kennedy International Airport,JFK,airport,40.642334,-73.78817,JFK,779.0,12.006189213085765
United States,MQT,US,America/Detroit,Sawyer International Airport,MQT,airport,46.35361,-87.39528,MQT,4.0,1.0424403183023874
United States,ROC,US,America/New_York,Greater Rochester International Airport,ROC,airport,43.127975,-77.66543,ROC,49.0,1.6790450928381961
United States,ALW,US,America/Los_Angeles,Walla Walla Airport,ALW,airport,46.094723,-118.291115,ALW,2.0,1.0141467727674625
United States,BET,US,America/Anchorage,Bethel Airport,BET,airport,60.784443,-161.83139,BET,58.0,1.806366047745358
United States,MVY,US,America/New_York,Martha's Vineyard Airport,MVY,airport,41.389336,-70.61182,MVY,10.0,1.1273209549071619
United States,LYH,US,America/New_York,Preston-Glenn Field,LYH,airport,37.326942,-79.20111,LYH,2.0,1.0141467727674625
United States,FYV,US,America/Chicago,Northwest Arkansas Regional,XNA,airport,36.275257,-94.29711,XNA,38.0,1.5234305923961098
United States,PHL,US,America/New_York,Philadelphia International Airport,PHL,airport,39.87641,-75.2433,PHL,458.0,7.465075154730327
United States,OAJ,US,America/New_York,Albert J Ellis Airport,OAJ,airport,34.83044,-77.605835,OAJ,8.0,1.099027409372237
United States,IMT,US,America/Menominee,Ford Airport,IMT,airport,45.815556,-88.11417,IMT,2.0,1.0141467727674625
United States,KUK,US,America/Nome,Kasigluk Airport,KUK,airport,60.876087,-162.52124,KUK,4.0,1.0424403183023874
United States,RDU,US,America/New_York,Raleigh-Durham International Airport,RDU,airport,35.873592,-78.79086,RDU,131.0,2.839080459770115
United States,RHI,US,America/Chicago,Oneida County Airport,RHI,airport,45.625706,-89.46253,RHI,2.0,1.0141467727674625
United States,TYS,US,America/New_York,McGhee Tyson Airport,TYS,airport,35.80565,-83.98973,TYS,44.0,1.608311229000884
United States,GRR,US,America/Detroit,Gerald R. Ford International Airport,GRR,airport,42.88501,-85.52974,GRR,49.0,1.6790450928381961
United States,CRW,US,America/New_York,Yeager Airport,CRW,airport,38.370342,-81.596504,CRW,14.0,1.1839080459770115
United States,JLN,US,America/Chicago,Joplin Airport,JLN,airport,37.149723,-94.49778,JLN,2.0,1.0141467727674625
United States,CIC,US,America/Los_Angeles,Chico Municipal Airport,CIC,airport,39.795834,-121.85667,CIC,2.0,1.0141467727674625
United States,LWB,US,America/New_York,Greenbrier Valley Airport,LWB,airport,37.859722,-80.39861,LWB,4.0,1.0424403183023874
United States,CDC,US,America/Denver,Cedar City Airport,CDC,airport,37.7025,-113.09611,CDC,2.0,1.0141467727674625
United States,BFD,US,America/New_York,Bradford Airport,BFD,airport,41.802223,-78.63944,BFD,4.0,1.0424403183023874
United States,STG,US,America/Anchorage,St. George Island Airport,STG,airport,56.6,-169.5525,STG,8.0,1.099027409372237
United States,TWF,US,America/Boise,Magic Valley Regional Airport,TWF,airport,42.481945,-114.486664,TWF,2.0,1.0141467727674625
United States,GSO,US,America/New_York,Piedmont Triad International Airport,GSO,airport,36.105324,-79.9373,GSO,38.0,1.5234305923961098
United States,MKG,US,America/Detroit,Muskegon Airport,MKG,airport,43.170555,-86.2375,MKG,2.0,1.0141467727674625
United States,ART,US,America/New_York,Watertown Airport,ART,airport,43.990833,-76.021385,ART,2.0,1.0141467727674625
United States,MMH,US,America/Los_Angeles,Mammoth Lakes Airport,MMH,airport,37.63111,-118.85139,MMH,6.0,1.070733863837312
United States,MCG,US,America/Anchorage,McGrath Airport,MCG,airport,62.97875,-155.65764,MCG,8.0,1.099027409372237
United States,NME,US,America/Anchorage,Nightmute Airport,NME,airport,60.471046,-164.70084,NME,5.0,1.0565870910698496
United States,CAE,US,America/New_York,Columbia Metropolitan Airport,CAE,airport,33.946907,-81.12501,CAE,25.0,1.339522546419098
United States,NYC,US,America/New_York,LaGuardia Airport,LGA,airport,40.774254,-73.87162,LGA,312.0,5.399646330680813
United States,MSO,US,America/Denver,Missoula International Airport,MSO,airport,46.918964,-114.08321,MSO,16.0,1.2122015915119364
United States,HYS,US,America/Chicago,Hays Municipal Airport,HYS,airport,38.84611,-99.27417,HYS,12.0,1.1556145004420866
United States,GLH,US,America/Chicago,Greenville Airport,GLH,airport,33.484444,-90.985,GLH,2.0,1.0141467727674625
United States,ABL,US,America/Anchorage,Ambler Airport,ABL,airport,67.0875,-157.84584,ABL,8.0,1.099027409372237
United States,PQI,US,America/New_York,Presque Isle Municipal Airport,PQI,airport,46.685,-68.0475,PQI,2.0,1.0141467727674625
United States,CHI,US,America/Chicago,O'Hare International Airport,ORD,airport,41.976913,-87.90488,ORD,1099.0,16.53315649867374
United States,OBU,US,America/Anchorage,Kobuk/Wien Airport,OBU,airport,66.91055,-156.88333,OBU,6.0,1.070733863837312
United States,SLC,US,America/Denver,Salt Lake City International Airport,SLC,airport,40.785645,-111.980675,SLC,269.0,4.7913351016799295
United States,OMA,US,America/Chicago,Eppley Airfield,OMA,airport,41.29957,-95.89972,OMA,60.0,1.834659593280283
United States,ALS,US,America/Denver,Alamosa Municipal Airport,ALS,airport,37.43667,-105.86667,ALS,8.0,1.099027409372237
United States,MSN,US,America/Chicago,Dane County Regional Airport,MSN,airport,43.136375,-89.3465,MSN,38.0,1.5234305923961098
United States,TPA,US,America/New_York,Tampa International Airport,TPA,airport,27.97987,-82.535416,TPA,193.0,3.716180371352785
United States,OGG,US,Pacific/Honolulu,Kahului Airport,OGG,airport,20.892883,-156.43863,OGG,117.0,2.641025641025641
United States,BUF,US,America/New_York,Buffalo Niagara International Airport,BUF,airport,42.933826,-78.731804,BUF,68.0,1.9478337754199824
United States,PIZ,US,America/Anchorage,Dew Station Airport,PIZ,airport,69.75,-163.16667,PIZ,4.0,1.0424403183023874
United States,CMX,US,America/Detroit,Houghton County Airport,CMX,airport,47.167778,-88.48639,CMX,2.0,1.0141467727674625
United States,GTF,US,America/Denver,Great Falls International Airport,GTF,airport,47.481888,-111.35636,GTF,14.0,1.1839080459770115
United States,RAP,US,America/Denver,Rapid City Regional Airport,RAP,airport,44.037582,-103.06118,RAP,16.0,1.2122015915119364
United States,HGR,US,America/New_York,Wash. County Regional Airport,HGR,airport,39.70778,-77.73,HGR,4.0,1.0424403183023874
United States,KYU,US,America/Anchorage,Koyukuk Airport,KYU,airport,64.87806,-157.71306,KYU,5.0,1.0565870910698496
United States,DLG,US,America/Anchorage,Dillingham Airport,DLG,airport,59.04246,-158.51472,DLG,4.0,1.0424403183023874
United States,MCW,US,America/Chicago,Mason City Airport,MCW,airport,43.156944,-93.329445,MCW,4.0,1.0424403183023874
United States,DRG,US,America/Nome,Deering Airport,DRG,airport,66.0712,-162.75989,DRG,8.0,1.099027409372237
United States,COS,US,America/Denver,Colorado Springs Airport,COS,airport,38.79713,-104.70056,COS,36.0,1.4951370468611849
United States,EWN,US,America/New_York,Coastal Carolina Regional Airport,EWN,airport,35.078342,-77.03462,EWN,6.0,1.070733863837312
United States,BRL,US,America/Chicago,Burlington Airport,BRL,airport,40.78611,-91.12334,BRL,4.0,1.0424403183023874
United States,BKW,US,America/New_York,Beckley Airport,BKW,airport,37.781944,-81.12417,BKW,4.0,1.0424403183023874
United States,APN,US,America/Detroit,Alpena County Regional Airport,APN,airport,45.08167,-83.55583,APN,4.0,1.0424403183023874
United States,AUG,US,America/New_York,Augusta Airport,AUG,airport,44.318054,-69.79667,AUG,2.0,1.0141467727674625
United States,MAF,US,America/Chicago,Midland International Airport,MAF,airport,31.937145,-102.20817,MAF,12.0,1.1556145004420866
United States,GPT,US,America/Chicago,Gulfport-Biloxi International Airport,GPT,airport,30.413284,-89.07203,GPT,14.0,1.1839080459770115
United States,COU,US,America/Chicago,Columbia Regional Airport,COU,airport,38.81361,-92.21917,COU,4.0,1.0424403183023874
United States,JAC,US,America/Denver,Jackson Hole Airport,JAC,airport,43.602806,-110.73613,JAC,6.0,1.070733863837312
United States,CVG,US,America/New_York,Cincinnati Municipal Lunken Airport,LUK,airport,39.033333,-84.666664,LUK,2.0,1.0141467727674625
United States,TYR,US,America/Chicago,Tyler Pounds Regional Airport,TYR,airport,32.351597,-95.41012,TYR,4.0,1.0424403183023874
United States,MHT,US,America/New_York,Manchester Boston Regional Airport,MHT,airport,42.92786,-71.43844,MHT,39.0,1.537577365163572
United States,MYU,US,America/Anchorage,Ellis Field,MYU,airport,60.37278,-166.26805,MYU,2.0,1.0141467727674625
United States,SLK,US,America/New_York,Adirondack Airport,SLK,airport,44.38278,-74.206665,SLK,2.0,1.0141467727674625
United States,SLN,US,America/Chicago,Salina Regional Airport,SLN,airport,38.790833,-97.6525,SLN,2.0,1.0141467727674625
United States,LNK,US,America/Chicago,Lincoln Airport,LNK,airport,40.846176,-96.75471,LNK,10.0,1.1273209549071619
United States,LAW,US,America/Chicago,Lawton-Fort Sill Regional Airport,LAW,airport,34.56972,-98.416115,LAW,2.0,1.0141467727674625
United States,ENA,US,America/Anchorage,Kenai Municipal Airport,ENA,airport,60.56521,-151.24644,ENA,6.0,1.070733863837312
United States,PGA,US,America/Phoenix,Page Airport,PGA,airport,36.926388,-111.44722,PGA,27.0,1.367816091954023
United States,HRL,US,America/Chicago,Valley International Airport,HRL,airport,26.223482,-97.662254,HRL,10.0,1.1273209549071619
United States,HLN,US,America/Denver,Helena Regional Airport,HLN,airport,46.61052,-111.99018,HLN,9.0,1.1131741821396994
United States,LWS,US,America/Los_Angeles,Lewiston-Nez Perce County Regional Airport,LWS,airport,46.37472,-117.01444,LWS,8.0,1.099027409372237
United States,HSL,US,America/Anchorage,Huslia Airport,HSL,airport,65.7025,-156.375,HSL,7.0,1.0848806366047745
United States,TLT,US,America/Anchorage,Tuluksak Airport,TLT,airport,61.09889,-160.96472,TLT,7.0,1.0848806366047745
United States,BDL,US,America/New_York,Bradley International Airport,BDL,airport,41.92953,-72.6847,BDL,83.0,2.1600353669319183
United States,MYR,US,America/New_York,Myrtle Beach International Airport,MYR,airport,33.682674,-78.92294,MYR,38.0,1.5234305923961098
United States,OTH,US,America/Los_Angeles,Southwest Oregon Regional Airport,OTH,airport,43.418888,-124.24,OTH,4.0,1.0424403183023874
United States,BRO,US,America/Chicago,South Padre Island International Airport,BRO,airport,25.90889,-97.42333,BRO,8.0,1.099027409372237
United States,ILI,US,America/Anchorage,Iliamna Airport,ILI,airport,59.752777,-154.90834,ILI,2.0,1.0141467727674625
United States,CEZ,US,America/Denver,Montezuma County Airport,CEZ,airport,37.302776,-108.62722,CEZ,12.0,1.1556145004420866
United States,PWM,US,America/New_York,Portland International Jetport,PWM,airport,43.64749,-70.31031,PWM,31.0,1.4244031830238728
United States,MSP,US,America/Chicago,Minneapolis-St. Paul International Airport,MSP,airport,44.883015,-93.21092,MSP,443.0,7.252873563218391
United States,MEM,US,America/Chicago,Memphis International Airport,MEM,airport,35.04458,-89.98226,MEM,141.0,2.9805481874447395
United States,VPS,US,America/Chicago,Destin Fort Walton Beach Airport,VPS,airport,30.495913,-86.54946,VPS,14.0,1.1839080459770115
United States,BFF,US,America/Denver,Western Nebraska Regional Airport,BFF,airport,41.87528,-103.60111,BFF,12.0,1.1556145004420866
United States,HCR,US,America/Anchorage,Holy Cross Airport,HCR,airport,62.18889,-159.77167,HCR,4.0,1.0424403183023874
United States,ABR,US,America/Chicago,Aberdeen Municipal Airport,ABR,airport,45.4525,-98.42611,ABR,2.0,1.0141467727674625
United States,AVP,US,America/New_York,Wilkes-Barre/Scranton International Airport,AVP,airport,41.336697,-75.730644,AVP,14.0,1.1839080459770115
United States,ATW,US,America/Chicago,Outagamie County Regional Airport,ATW,airport,44.26011,-88.50994,ATW,14.0,1.1839080459770115
United States,MHK,US,America/Chicago,Manhattan Municipal Airport,MHK,airport,39.142223,-96.66889,MHK,4.0,1.0424403183023874
United States,KKH,US,America/Nome,Kongiganak Airport,KKH,airport,59.966667,-162.75,KKH,6.0,1.070733863837312
United States,ABI,US,America/Chicago,Abilene Regional Airport,ABI,airport,32.409443,-99.679726,ABI,2.0,1.0141467727674625
United States,LBB,US,America/Chicago,Lubbock Preston Smith International Airport,LBB,airport,33.65622,-101.8223,LBB,12.0,1.1556145004420866
United States,TLA,US,America/Anchorage,Teller Airport,TLA,airport,65.27167,-166.355,TLA,6.0,1.070733863837312
United States,PKB,US,America/New_York,Wood County Airport,PKB,airport,39.345554,-81.43889,PKB,2.0,1.0141467727674625
United States,STL,US,America/Chicago,Lambert-St. Louis International Airport,STL,airport,38.74228,-90.36587,STL,184.0,3.5888594164456236
United States,GFK,US,America/Chicago,Grand Forks International Airport,GFK,airport,47.9488,-97.17587,GFK,10.0,1.1273209549071619
United States,SBN,US,America/Indiana/Indianapolis,South Bend Regional,SBN,airport,41.700554,-86.31335,SBN,26.0,1.3536693191865605
United States,LMT,US,America/Los_Angeles,Crater Lake Klamath Regional Airport,LMT,airport,42.163055,-121.73583,LMT,4.0,1.0424403183023874
United States,IWD,US,America/Menominee,Gogebic County Airport,IWD,airport,46.525555,-90.13167,IWD,2.0,1.0141467727674625
United States,GRI,US,America/Chicago,Grand Island Airport,GRI,airport,40.96722,-98.30666,GRI,6.0,1.070733863837312
United States,SPI,US,America/Chicago,Capital Airport,SPI,airport,39.844166,-89.67889,SPI,2.0,1.0141467727674625
United States,FSD,US,America/Chicago,Sioux Falls Regional Airport (Joe Foss Field),FSD,airport,43.580296,-96.73115,FSD,28.0,1.3819628647214854
United States,MLI,US,America/Chicago,Quad City International Airport,MLI,airport,41.453896,-90.50611,MLI,26.0,1.3536693191865605
United States,BGM,US,America/New_York,Greater Binghamton Airport,BGM,airport,42.208534,-75.98294,BGM,6.0,1.070733863837312
United States,LEX,US,America/New_York,Blue Grass Airport,LEX,airport,38.03762,-84.59792,LEX,30.0,1.4102564102564101
United States,KWN,US,America/Anchorage,Kwinhagak Airport,KWN,airport,59.761112,-161.83333,KWN,4.0,1.0424403183023874
United States,GRB,US,America/Chicago,Austin Straubel International Airport,GRB,airport,44.492847,-88.121895,GRB,12.0,1.1556145004420866
United States,WAS,US,America/New_York,Washington Dulles International Airport,IAD,airport,38.95315,-77.44774,IAD,433.0,7.111405835543766
United States,SHH,US,America/Anchorage,Shishmaref Airport,SHH,airport,66.25694,-166.05833,SHH,6.0,1.070733863837312
United States,DVL,US,America/Chicago,Devils Lake Airport,DVL,airport,48.113056,-98.9075,DVL,4.0,1.0424403183023874
United States,BUR,US,America/Los_Angeles,Bob Hope Airport,BUR,airport,34.19619,-118.35411,BUR,36.0,1.4951370468611849
United States,CRP,US,America/Chicago,Corpus Christi International Airport,CRP,airport,27.774813,-97.50249,CRP,6.0,1.070733863837312
United States,FAR,US,America/Chicago,Hector International Airport,FAR,airport,46.91953,-96.82551,FAR,22.0,1.297082228116711
United States,DAY,US,America/New_York,James M. Cox Dayton International Airport,DAY,airport,39.898006,-84.220764,DAY,42.0,1.5800176834659592
United States,LAX,US,America/Los_Angeles,Los Angeles International Airport,LAX,airport,33.943398,-118.40828,LAX,924.0,14.057471264367816
United States,FSM,US,America/Chicago,Fort Smith Regional Airport,FSM,airport,35.34124,-94.3589,FSM,4.0,1.0424403183023874
United States,DUT,US,America/Nome,Unalaska Airport,DUT,airport,53.89446,-166.54224,DUT,6.0,1.070733863837312
United States,MFE,US,America/Chicago,McAllen International Airport,MFE,airport,26.181295,-98.23978,MFE,10.0,1.1273209549071619
United States,MLL,US,America/Anchorage,Marshall Don Hunter Sr. Airport,MLL,airport,61.865833,-162.0689,MLL,2.0,1.0141467727674625
United States,GGG,US,America/Chicago,Gregg County Airport,GGG,airport,32.386665,-94.71528,GGG,2.0,1.0141467727674625
United States,ATL,US,America/New_York,Hartsfield-Jackson Atlanta International Airport,ATL,airport,33.640068,-84.44403,ATL,808.0,12.416445623342176
United States,PUW,US,America/Los_Angeles,Moscow Regional Airport,PUW,airport,46.74472,-117.105,PUW,4.0,1.0424403183023874
United States,ALB,US,America/New_York,Albany International Airport,ALB,airport,42.745277,-73.809555,ALB,46.0,1.636604774535809
United States,CMI,US,America/Chicago,Willard University Airport,CMI,airport,40.039665,-88.26905,CMI,4.0,1.0424403183023874
United States,SMX,US,America/Los_Angeles,Santa Maria Public Airport,SMX,airport,34.905,-120.45778,SMX,4.0,1.0424403183023874
United States,FRD,US,America/Los_Angeles,Friday Harbor Airport,FRD,airport,48.524807,-123.0265,FRD,4.0,1.0424403183023874
United States,CNM,US,America/Denver,Cavern City Air Terminal,CNM,airport,32.337223,-104.26278,CNM,2.0,1.0141467727674625
United States,ITH,US,America/New_York,Ithaca Tompkins Regional Airport,ITH,airport,42.49034,-76.46359,ITH,8.0,1.099027409372237
United States,MKE,US,America/Chicago,General Mitchell International Airport,MKE,airport,42.948093,-87.90267,MKE,104.0,2.4571175950486293
United States,MKC,US,America/Chicago,Kansas City International Airport,MCI,airport,39.293808,-94.719925,MCI,140.0,2.966401414677277
United States,JHM,US,Pacific/Honolulu,Kapalua Airport,JHM,airport,20.962194,-156.67569,JHM,8.0,1.099027409372237
United States,EVV,US,America/Chicago,Evansville Regional Airport,EVV,airport,38.046165,-87.52796,EVV,8.0,1.099027409372237
United States,OAK,US,America/Los_Angeles,Metropolitan Oakland International Airport,OAK,airport,37.71188,-122.21201,OAK,108.0,2.513704686118479
United States,UNK,US,America/Anchorage,Unalakleet Airport,UNK,airport,63.881927,-160.79944,UNK,24.0,1.3253757736516358
United States,PRC,US,America/Phoenix,Prescott Airport,PRC,airport,34.65,-112.424164,PRC,12.0,1.1556145004420866
United States,ILE,US,America/Chicago,Robert Gray Army Airfield,GRK,airport,31.061821,-97.820915,GRK,6.0,1.070733863837312
United States,HAR,US,America/New_York,Harrisburg International Airport,MDT,airport,40.196007,-76.75606,MDT,38.0,1.5234305923961098
United States,FNT,US,America/Detroit,Bishop International Airport,FNT,airport,42.973812,-83.73891,FNT,18.0,1.240495137046861
United States,FLL,US,America/New_York,Fort Lauderdale-Hollywood International Airport,FLL,airport,26.071491,-80.144905,FLL,297.0,5.187444739168877
United States,ATT,US,America/Nome,Atmautluak Airport,ATT,airport,60.866943,-162.2675,ATT,4.0,1.0424403183023874
United States,ANV,US,America/Anchorage,Anvik Airport,ANV,airport,62.647778,-160.18889,ANV,4.0,1.0424403183023874
United States,MLU,US,America/Chicago,Monroe Regional Airport,MLU,airport,32.51184,-92.043655,MLU,6.0,1.070733863837312
United States,HNH,US,America/Juneau,Hoonah Airport,HNH,airport,58.098057,-135.40334,HNH,4.0,1.0424403183023874
United States,BTR,US,America/Chicago,Baton Rouge Metropolitan Airport,BTR,airport,30.532537,-91.156906,BTR,10.0,1.1273209549071619
United States,KOT,US,America/Nome,Kotlik Airport,KOT,airport,63.02972,-163.56027,KOT,7.0,1.0848806366047745
United States,SUX,US,America/Chicago,Sioux Gateway Airport,SUX,airport,42.401943,-96.38417,SUX,2.0,1.0141467727674625
United States,ITO,US,Pacific/Honolulu,Hilo International Airport,ITO,airport,19.714565,-155.03963,ITO,13.0,1.169761273209549
United States,GSP,US,America/New_York,Greenville-Spartanburg International Airport,GSP,airport,34.890568,-82.21706,GSP,48.0,1.664898320070734
United States,OKC,US,America/Chicago,Will Rogers World Airport,OKC,airport,35.39563,-97.59609,OKC,65.0,1.905393457117595
United States,CLL,US,America/Chicago,Easterwood Airport,CLL,airport,30.593842,-96.36682,CLL,4.0,1.0424403183023874
United States,LBE,US,America/New_York,Westmoreland County Airport,LBE,airport,40.27639,-79.40278,LBE,6.0,1.070733863837312
United States,SSM,US,America/Detroit,Chippewa County Airport,CIU,airport,46.5,-84.35,CIU,2.0,1.0141467727674625
United States,AUW,US,America/Chicago,Central Wisconsin Airport,CWA,airport,44.78421,-89.67244,CWA,8.0,1.099027409372237
United States,IAN,US,America/Anchorage,Bob Baker Memorial Airport,IAN,airport,66.975555,-160.43056,IAN,8.0,1.099027409372237
United States,CMH,US,America/New_York,John Glenn Columbus International Airport,CMH,airport,39.99818,-82.884964,CMH,96.0,2.34394341290893
United States,OTZ,US,America/Nome,Ralph Wien Memorial Airport,OTZ,airport,66.888054,-162.60583,OTZ,44.0,1.608311229000884
United States,EAU,US,America/Chicago,Eau Claire Airport,EAU,airport,44.864445,-91.48722,EAU,2.0,1.0141467727674625
United States,SAF,US,America/Denver,Santa Fe,SAF,airport,35.6175,-106.08833,SAF,4.0,1.0424403183023874
United States,YUM,US,America/Phoenix,Yuma International Airport,YUM,airport,32.668606,-114.599266,YUM,4.0,1.0424403183023874
United States,MOU,US,America/Anchorage,Mountain Village Airport,MOU,airport,62.089443,-163.71666,MOU,4.0,1.0424403183023874
United States,PVD,US,America/New_York,Theodore Francis Green Memorial State Airport,PVD,airport,41.72631,-71.43632,PVD,46.0,1.636604774535809
United States,KTS,US,America/Anchorage,Brevig Mission Airport,KTS,airport,65.329445,-166.47166,KTS,8.0,1.099027409372237
United States,EWB,US,America/New_York,New Bedford Airport,EWB,airport,41.676945,-70.95917,EWB,4.0,1.0424403183023874
United States,FAI,US,America/Anchorage,Fairbanks International Airport,FAI,airport,64.818214,-147.8668,FAI,57.0,1.7922192749778958
United States,HRO,US,America/Chicago,Boone County Airport,HRO,airport,36.261665,-93.155556,HRO,4.0,1.0424403183023874
United States,PBI,US,America/New_York,Palm Beach International Airport,PBI,airport,26.688885,-80.09044,PBI,51.0,1.707338638373121
United States,WMO,US,America/Anchorage,White Mountain Airport,WMO,airport,64.68694,-163.40666,WMO,8.0,1.099027409372237
United States,CGI,US,America/Chicago,Cape Girardeau Airport,CGI,airport,37.22361,-89.57167,CGI,2.0,1.0141467727674625
United States,FMY,US,America/New_York,Southwest Florida International Airport,RSW,airport,26.542835,-81.75433,RSW,96.0,2.34394341290893
United States,HOU,US,America/Chicago,William P. Hobby Airport,HOU,airport,29.654512,-95.277016,HOU,88.0,2.230769230769231
United States,HOU,US,America/Chicago,George Bush Intercontinental Airport,IAH,airport,29.983334,-95.34,IAH,540.0,8.625110521662247
United States,SHX,US,America/Anchorage,Shageluk Airport,SHX,airport,62.69583,-159.56667,SHX,4.0,1.0424403183023874
United States,ICT,US,America/Chicago,Wichita Dwight D. Eisenhower National Airport,ICT,airport,37.653046,-97.428955,ICT,28.0,1.3819628647214854
United States,RKD,US,America/New_York,Knox County Regional Airport,RKD,airport,44.059166,-69.09805,RKD,2.0,1.0141467727674625
United States,BIL,US,America/Denver,Billings Logan International Airport,BIL,airport,45.803417,-108.53723,BIL,33.0,1.4526967285587975
United States,PHO,US,America/Anchorage,Point Hope Airport,PHO,airport,68.35,-166.8,PHO,8.0,1.099027409372237
United States,SGF,US,America/Chicago,Springfield-Branson National Airport,SGF,airport,37.24237,-93.38226,SGF,26.0,1.3536693191865605
United States,WAA,US,America/Anchorage,Wales Airport,WAA,airport,65.617226,-168.09084,WAA,9.0,1.1131741821396994
United States,BRW,US,America/Anchorage,Wiley Post-Will Rogers Memorial Airport,BRW,airport,71.288574,-156.77579,BRW,12.0,1.1556145004420866
United States,SBY,US,America/New_York,Wicomico Regional Airport,SBY,airport,38.34312,-75.517265,SBY,10.0,1.1273209549071619
United States,DAB,US,America/New_York,Daytona Beach International Airport,DAB,airport,29.185192,-81.06083,DAB,4.0,1.0424403183023874
United States,BOI,US,America/Boise,Boise Air Terminal (Gowen Field),BOI,airport,43.569263,-116.22193,BOI,52.0,1.7214854111405835
United States,SEA,US,America/Los_Angeles,Boeing Field International Airport,BFI,airport,47.5371,-122.3037,BFI,8.0,1.099027409372237
United States,ROA,US,America/New_York,Roanoke-Blacksburg Regional Airport,ROA,airport,37.32051,-79.97038,ROA,22.0,1.297082228116711
United States,HOB,US,America/Denver,Lea County Airport,HOB,airport,32.68861,-103.21694,HOB,2.0,1.0141467727674625
United States,WAS,US,America/New_York,Ronald Reagan National Airport,DCA,airport,38.853436,-77.04346,DCA,274.0,4.862068965517242
United States,FWA,US,America/Indiana/Indianapolis,Fort Wayne International Airport,FWA,airport,40.98666,-85.18771,FWA,20.0,1.268788682581786
United States,DHN,US,America/Chicago,Dothan Regional Airport,DHN,airport,31.32,-85.44833,DHN,2.0,1.0141467727674625
United States,LIH,US,Pacific/Honolulu,Lihue Airport,LIH,airport,21.978205,-159.34944,LIH,46.0,1.636604774535809
United States,LUL,US,America/Chicago,Hattiesburg-Laurel Regional Airport,PIB,airport,31.4675,-89.33667,PIB,2.0,1.0141467727674625
United States,CKB,US,America/New_York,Benedum Airport,CKB,airport,39.295555,-80.22945,CKB,4.0,1.0424403183023874
United States,BTM,US,America/Denver,Butte Airport,BTM,airport,45.95111,-112.49389,BTM,2.0,1.0141467727674625
United States,SVC,US,America/Denver,Grant County Airport,SVC,airport,32.631943,-108.15389,SVC,4.0,1.0424403183023874
United States,PHF,US,America/New_York,Newport News/Williamsburg International Airport,PHF,airport,37.13033,-76.50282,PHF,14.0,1.1839080459770115
United States,CHU,US,America/Anchorage,Chuathbaluk Airport,CHU,airport,61.583435,-159.23882,CHU,2.0,1.0141467727674625
United States,ELM,US,America/New_York,Elmira Corning Regional Airport,ELM,airport,42.16304,-76.89586,ELM,8.0,1.099027409372237
United States,KOA,US,Pacific/Honolulu,Kona International Airport at Keahole,KOA,airport,19.736174,-156.04108,KOA,59.0,1.8205128205128205
United States,ABQ,US,America/Denver,Albuquerque International Sunport,ABQ,airport,35.049625,-106.617195,ABQ,75.0,2.0468611847922196
United States,WBB,US,America/Anchorage,Stebbins Airport,WBB,airport,63.51936,-162.28873,WBB,12.0,1.1556145004420866
United States,ATK,US,America/Anchorage,Atqasuk Airport,ATK,airport,70.5,-157.33333,ATK,4.0,1.0424403183023874
United States,SAT,US,America/Chicago,San Antonio International Airport,SAT,airport,29.524937,-98.47264,SAT,114.0,2.598585322723254
United States,VLD,US,America/New_York,Valdosta Regional Airport,VLD,airport,30.78389,-83.27722,VLD,2.0,1.0141467727674625
United States,PIA,US,America/Chicago,Peoria International Airport,PIA,airport,40.66643,-89.69012,PIA,22.0,1.297082228116711
United States,JMS,US,America/Chicago,Jamestown Airport,JMS,airport,46.93,-98.67833,JMS,4.0,1.0424403183023874
United States,PGV,US,America/New_York,Pitt-Greenville Airport,PGV,airport,35.63333,-77.38528,PGV,4.0,1.0424403183023874
United States,ADQ,US,America/Anchorage,Kodiak Benny Benson State Airport,ADQ,airport,57.755276,-152.51297,ADQ,18.0,1.240495137046861
United States,AUK,US,America/Nome,Alakanuk Airport,AUK,airport,62.689167,-164.61084,AUK,5.0,1.0565870910698496
United States,EGE,US,America/Denver,Eagle County Airport,EGE,airport,39.63988,-106.91347,EGE,4.0,1.0424403183023874
United States,GLV,US,America/Nome,Golovin Airport,GLV,airport,64.54417,-163.0375,GLV,8.0,1.099027409372237
United States,DTT,US,America/Detroit,Detroit Metropolitan Wayne County Airport,DTW,airport,42.20781,-83.35605,DTW,440.0,7.210433244916003
United States,SGU,US,America/Denver,Saint George Municipal Airport,SGU,airport,37.032627,-113.51017,SGU,4.0,1.0424403183023874
United States,BKC,US,America/Anchorage,Buckland Airport,BKC,airport,65.97889,-161.12666,BKC,8.0,1.099027409372237
United States,SRQ,US,America/New_York,Sarasota Bradenton International Airport,SRQ,airport,27.38748,-82.55328,SRQ,12.0,1.1556145004420866
United States,RDM,US,America/Los_Angeles,Roberts Field Redmond Municipal Airport,RDM,airport,44.254272,-121.162895,RDM,17.0,1.2263483642793989
United States,HUS,US,America/Anchorage,Hughes Municipal Airport,HUS,airport,66.04056,-154.26334,HUS,4.0,1.0424403183023874
United States,PSC,US,America/Los_Angeles,Tri-Cities Airport,PSC,airport,46.259094,-119.1152,PSC,18.0,1.240495137046861
United States,KSM,US,America/Anchorage,Saint Mary's Airport,KSM,airport,62.058666,-163.29489,KSM,10.0,1.1273209549071619
United States,BRD,US,America/Chicago,Crow Wing County Airport,BRD,airport,46.39722,-94.1375,BRD,2.0,1.0141467727674625
United States,MOT,US,America/Chicago,Minot International Airport,MOT,airport,48.259724,-101.28083,MOT,10.0,1.1273209549071619
United States,ISP,US,America/New_York,Long Island MacArthur Airport,ISP,airport,40.789314,-73.09755,ISP,16.0,1.2122015915119364
United States,CHS,US,America/New_York,Charleston International Airport,CHS,airport,32.884354,-80.037155,CHS,46.0,1.636604774535809
United States,TUS,US,America/Phoenix,Tucson International Airport,TUS,airport,32.12069,-110.93737,TUS,40.0,1.5517241379310345
United States,SSI,US,America/New_York,Glynco Jetport,BQK,airport,31.166668,-81.48333,BQK,2.0,1.0141467727674625
United States,CDV,US,America/Anchorage,Mudhole Smith Airport,CDV,airport,60.493057,-145.47,CDV,8.0,1.099027409372237
United States,RDD,US,America/Los_Angeles,Redding Municipal Airport,RDD,airport,40.505768,-122.29991,RDD,2.0,1.0141467727674625
United States,PHX,US,America/Phoenix,Phoenix Sky Harbor International Airport,PHX,airport,33.435036,-112.00016,PHX,424.0,6.984084880636605
United States,GCK,US,America/Chicago,Garden City Municipal Airport,GCK,airport,37.92861,-100.72972,GCK,2.0,1.0141467727674625
United States,MBS,US,America/Detroit,MBS International Airport,MBS,airport,43.53339,-84.090744,MBS,6.0,1.070733863837312
United States,ORV,US,America/Anchorage,Robert (Bob) Curtis Memorial Airport,ORV,airport,66.82917,-161.0236,ORV,8.0,1.099027409372237
United States,TVF,US,America/Chicago,Thief River Falls Regional Airport,TVF,airport,48.066113,-96.185,TVF,4.0,1.0424403183023874
United States,SJT,US,America/Chicago,San Angelo Regional Airport,SJT,airport,31.355,-100.49639,SJT,2.0,1.0141467727674625
United States,AIA,US,America/Denver,Alliance Airport,AIA,airport,42.051666,-102.80666,AIA,12.0,1.1556145004420866
United States,PIH,US,America/Boise,Pocatello Regional Airport,PIH,airport,42.913334,-112.594444,PIH,2.0,1.0141467727674625
United States,PIR,US,America/Chicago,Pierre Regional Airport,PIR,airport,44.380363,-100.29319,PIR,19.0,1.2546419098143236
United States,ESC,US,America/Detroit,Delta County Airport,ESC,airport,45.720554,-87.08667,ESC,4.0,1.0424403183023874
United States,SAC,US,America/Los_Angeles,Stockton Airport,SCK,airport,37.894444,-121.23917,SCK,2.0,1.0141467727674625
United States,KWT,US,America/Anchorage,Kwethluk Airport,KWT,airport,60.808887,-161.4375,KWT,7.0,1.0848806366047745
United States,GCN,US,America/Phoenix,Flagstaff Pulliam Airport,FLG,airport,35.13778,-111.67167,FLG,2.0,1.0141467727674625
United States,ANI,US,America/Anchorage,Aniak Airport,ANI,airport,61.574398,-159.53697,ANI,20.0,1.268788682581786
United States,ECP,US,America/Chicago,NW Florida Beaches Int,ECP,airport,30.357803,-85.79892,ECP,12.0,1.1556145004420866
United States,FKL,US,America/New_York,Venango Regional Airport,FKL,airport,41.379166,-79.85972,FKL,5.0,1.0565870910698496
United States,INL,US,America/Chicago,Falls International Airport,INL,airport,48.563057,-93.40417,INL,2.0,1.0141467727674625
United States,RNO,US,America/Los_Angeles,Reno/Tahoe International Airport,RNO,airport,39.505783,-119.775696,RNO,50.0,1.6931918656056588
United States,SBA,US,America/Los_Angeles,Santa Barbara Municipal Airport,SBA,airport,34.432835,-119.83648,SBA,18.0,1.240495137046861
United States,IAG,US,America/New_York,Niagara Falls International Airport,IAG,airport,43.1,-78.95,IAG,10.0,1.1273209549071619
United States,ORF,US,America/New_York,Norfolk International Airport,ORF,airport,36.898582,-76.20629,ORF,53.0,1.735632183908046
United States,HOM,US,America/Anchorage,Homer Airport,HOM,airport,59.64324,-151.49316,HOM,6.0,1.070733863837312
United States,HYA,US,America/New_York,Barnstable Municipal Airport,HYA,airport,41.665833,-70.280556,HYA,8.0,1.099027409372237
United States,MGM,US,America/Chicago,Montgomery Regional Airport,MGM,airport,32.300556,-86.39389,MGM,8.0,1.099027409372237
United States,TVC,US,America/Detroit,Cherry Capital Airport,TVC,airport,44.744083,-85.58035,TVC,10.0,1.1273209549071619
United States,BNA,US,America/Chicago,Nashville International Airport,BNA,airport,36.13174,-86.668945,BNA,127.0,2.7824933687002655
United States,RUT,US,America/New_York,Rutland Airport,RUT,airport,43.529446,-72.94833,RUT,2.0,1.0141467727674625
United States,RKS,US,America/Denver,Rock Springs-Sweetwater County Airport,RKS,airport,41.59639,-109.065834,RKS,6.0,1.070733863837312
United States,BTV,US,America/New_York,Burlington International Airport,BTV,airport,44.469013,-73.15527,BTV,24.0,1.3253757736516358
United States,EUG,US,America/Los_Angeles,Eugene Airport,EUG,airport,44.119198,-123.21197,EUG,28.0,1.3819628647214854
United States,GAM,US,America/Nome,Gambell Airport,GAM,airport,63.776596,-171.71355,GAM,8.0,1.099027409372237
United States,WNA,US,America/Anchorage,Napakiak Sea Plane Base,WNA,airport,60.7,-162.11667,WNA,2.0,1.0141467727674625
United States,HSV,US,America/Chicago,Huntsville International Airport,HSV,airport,34.64857,-86.77484,HSV,28.0,1.3819628647214854
United States,DFW,US,America/Chicago,Dallas/Fort Worth International Airport,DFW,airport,32.89746,-97.036125,DFW,602.0,9.502210433244915
United States,RIC,US,America/New_York,Richmond International Airport (Byrd Field),RIC,airport,37.50611,-77.3225,RIC,62.0,1.8629531388152079
United States,CDB,US,America/Nome,Cold Bay Airport,CDB,airport,55.20457,-162.71774,CDB,11.0,1.1414677276746241
United States,SJC,US,America/Los_Angeles,Norman Y. Mineta San Jose International Airport,SJC,airport,37.366737,-121.92638,SJC,104.0,2.4571175950486293
United States,BHM,US,America/Chicago,Birmingham-Shuttlesworth International Airport,BHM,airport,33.560833,-86.75219,BHM,58.0,1.806366047745358
United States,IPL,US,America/Los_Angeles,Imperial County Airport,IPL,airport,32.837223,-115.57472,IPL,2.0,1.0141467727674625
United States,JHW,US,America/New_York,Jamestown Airport,JHW,airport,42.150555,-79.25806,JHW,4.0,1.0424403183023874
United States,AKN,US,America/Anchorage,King Salmon Airport,AKN,airport,58.68274,-156.66902,AKN,10.0,1.1273209549071619
United States,RBY,US,America/Anchorage,Ruby Airport,RBY,airport,64.73,-155.46083,RBY,7.0,1.0848806366047745
United States,LAS,US,America/Los_Angeles,McCarran International Airport,LAS,airport,36.086945,-115.1486,LAS,439.0,7.196286472148541
United States,CEC,US,America/Los_Angeles,Del Norte County Regional Airport,CEC,airport,41.78,-124.23583,CEC,4.0,1.0424403183023874
United States,SHV,US,America/Chicago,Shreveport Regional Airport,SHV,airport,32.45471,-93.828384,SHV,12.0,1.1556145004420866
United States,MCE,US,America/Los_Angeles,Merced Municipal Airport,MCE,airport,37.28472,-120.51278,MCE,10.0,1.1273209549071619
United States,FOD,US,America/Chicago,Fort Dodge Airport,FOD,airport,42.5525,-94.18972,FOD,4.0,1.0424403183023874
United States,VAK,US,America/Nome,Chevak Airport,VAK,airport,61.52861,-165.59027,VAK,4.0,1.0424403183023874
United States,DBQ,US,America/Chicago,Dubuque Municipal Airport,DBQ,airport,42.41,-90.71083,DBQ,2.0,1.0141467727674625
United States,PTU,US,America/Anchorage,Platinum Airport,PTU,airport,59.01139,-161.81694,PTU,2.0,1.0141467727674625
United States,AMA,US,America/Chicago,Rick Husband Amarillo International Airport,AMA,airport,35.218273,-101.70513,AMA,12.0,1.1556145004420866
United States,MSY,US,America/Chicago,Louis Armstrong New Orleans International Airport,MSY,airport,29.984564,-90.25639,MSY,116.0,2.6268788682581787
United States,SMK,US,America/Anchorage,St. Michael Airport,SMK,airport,63.484295,-162.11182,SMK,8.0,1.099027409372237
United States,LSE,US,America/Chicago,La Crosse Regional Airport,LSE,airport,43.875244,-91.264336,LSE,6.0,1.070733863837312
United States,TXK,US,America/Chicago,Texarkana Municipal Airport,TXK,airport,33.45639,-93.98917,TXK,2.0,1.0141467727674625
United States,MWA,US,America/Chicago,Williamson County Airport,MWA,airport,37.751945,-89.01639,MWA,2.0,1.0141467727674625
United States,MBL,US,America/Detroit,Blacker Airport,MBL,airport,44.273888,-86.253334,MBL,2.0,1.0141467727674625
United States,ONT,US,America/Los_Angeles,Ontario International Airport,ONT,airport,34.06068,-117.59765,ONT,48.0,1.664898320070734
United States,DIK,US,America/Boise,Dickinson Regional Airport,DIK,airport,46.833332,-102.9,DIK,12.0,1.1556145004420866
United States,PNS,US,America/Chicago,Pensacola International Airport,PNS,airport,30.475943,-87.19416,PNS,22.0,1.297082228116711
United States,DEC,US,America/Chicago,Decatur Airport,DEC,airport,39.834167,-88.868614,DEC,4.0,1.0424403183023874
United States,FLO,US,America/New_York,Florence Airport,FLO,airport,34.18889,-79.72444,FLO,4.0,1.0424403183023874
United States,HPB,US,America/Nome,Hooper Bay Airport,HPB,airport,61.525078,-166.14586,HPB,4.0,1.0424403183023874
United States,UIN,US,America/Chicago,Quincy Municipal Airport,UIN,airport,39.944168,-91.19722,UIN,2.0,1.0141467727674625
United States,AGS,US,America/New_York,Augusta Regional Airport,AGS,airport,33.373665,-81.973434,AGS,10.0,1.1273209549071619
United States,DRT,US,America/Chicago,Del Rio International Airport,DRT,airport,29.333332,-100.97833,DRT,2.0,1.0141467727674625
United States,TUP,US,America/Chicago,Tupelo Regional Airport,TUP,airport,34.25889,-88.76722,TUP,4.0,1.0424403183023874
United States,PSP,US,America/Los_Angeles,Palm Springs International Airport,PSP,airport,33.822975,-116.508446,PSP,46.0,1.636604774535809
United States,PLN,US,America/Detroit,Emmet County Airport,PLN,airport,45.57083,-84.79278,PLN,2.0,1.0141467727674625
United States,BMI,US,America/Chicago,Central Illinois Regional Airport,BMI,airport,40.48401,-88.91483,BMI,16.0,1.2122015915119364
United States,PSG,US,America/Anchorage,Petersburg Municipal Airport,PSG,airport,56.80417,-132.9425,PSG,4.0,1.0424403183023874
United States,SXP,US,America/Anchorage,Sheldon Sea Plane Base,SXP,airport,62.533333,-164.83333,SXP,4.0,1.0424403183023874
United States,ACT,US,America/Chicago,Waco Municipal Airport,ACT,airport,31.609133,-97.22321,ACT,2.0,1.0141467727674625
United States,HTS,US,America/New_York,Tri-State/Milton Airport,HTS,airport,38.366943,-82.556114,HTS,10.0,1.1273209549071619
United States,ORL,US,America/New_York,Orlando International Airport,MCO,airport,28.432177,-81.308304,MCO,349.0,5.923076923076923
United States,CVG,US,America/New_York,Cincinnati/Northern Kentucky Airport,CVG,airport,39.0555,-84.66145,CVG,140.0,2.966401414677277
United States,MGW,US,America/New_York,Morgantown Airport,MGW,airport,39.642776,-79.91583,MGW,4.0,1.0424403183023874
United States,NUI,US,America/Anchorage,Nuiqsut Airport,NUI,airport,70.209724,-151.00555,NUI,4.0,1.0424403183023874
United States,KAL,US,America/Anchorage,Kaltag Airport,KAL,airport,64.321945,-158.73611,KAL,6.0,1.070733863837312
United States,CYF,US,America/Nome,Chefornak Sea Plane Base,CYF,airport,60.216667,-164.2,CYF,6.0,1.070733863837312
United States,HPN,US,America/New_York,Westchester County Airport,HPN,airport,41.068672,-73.70389,HPN,31.0,1.4244031830238728
United States,SHG,US,America/Anchorage,Shungnak Airport,SHG,airport,66.889725,-157.15778,SHG,6.0,1.070733863837312
United States,LFT,US,America/Chicago,Lafayette Regional Airport,LFT,airport,30.20851,-91.99327,LFT,6.0,1.070733863837312
United States,MSL,US,America/Chicago,Northwest Alabama Regional Airport,MSL,airport,34.74861,-87.61611,MSL,2.0,1.0141467727674625
United States,IND,US,America/Indiana/Indianapolis,Indianapolis International Airport,IND,airport,39.714516,-86.29805,IND,95.0,2.329796640141468
United States,OWB,US,America/Chicago,Daviess County Airport,OWB,airport,37.740833,-87.16583,OWB,4.0,1.0424403183023874
United States,OLF,US,America/Denver,Wolf Point International Airport,OLF,airport,48.094723,-105.56639,OLF,4.0,1.0424403183023874
United States,MEI,US,America/Chicago,Key Field,MEI,airport,32.337223,-88.74917,MEI,2.0,1.0141467727674625
United States,SCE,US,America/New_York,University Park Airport,SCE,airport,40.85372,-77.84823,SCE,6.0,1.070733863837312
United States,GEG,US,America/Los_Angeles,Spokane International Airport,GEG,airport,47.62515,-117.537636,GEG,42.0,1.5800176834659592
United States,SNA,US,America/Los_Angeles,John Wayne Airport,SNA,airport,33.680202,-117.860535,SNA,84.0,2.174182139699381
United States,OGS,US,America/New_York,Ogdensburg Airport,OGS,airport,44.681667,-75.465836,OGS,2.0,1.0141467727674625
United States,AEX,US,America/Chicago,Alexandria International Airport,AEX,airport,31.321268,-92.53958,AEX,6.0,1.070733863837312
United States,GDV,US,America/Denver,Dawson Community Airport,GDV,airport,47.13889,-104.806946,GDV,4.0,1.0424403183023874
United States,ROW,US,America/Denver,Roswell International Air Center,ROW,airport,33.29972,-104.53,ROW,2.0,1.0141467727674625
United States,ASE,US,America/Denver,Aspen Airport,ASE,airport,39.219685,-106.864685,ASE,2.0,1.0141467727674625
United States,LAR,US,America/Denver,General Brees Field,LAR,airport,41.31361,-105.67306,LAR,12.0,1.1556145004420866
United States,APF,US,America/New_York,Naples Municipal Airport,APF,airport,26.152779,-81.775276,APF,2.0,1.0141467727674625
United States,HNS,US,America/Juneau,Haines Municipal Airport,HNS,airport,59.245834,-135.51889,HNS,4.0,1.0424403183023874
United States,KWK,US,America/Nome,Kwigillingok Airport,KWK,airport,59.833332,-163.13333,KWK,7.0,1.0848806366047745
United States,BOS,US,America/New_York,Logan International Airport,BOS,airport,42.36646,-71.02018,BOS,370.0,6.220159151193634
United States,SEA,US,America/Los_Angeles,Seattle-Tacoma International Airport,SEA,airport,47.44384,-122.301735,SEA,391.0,6.517241379310345
United States,LNS,US,America/New_York,Lancaster Airport,LNS,airport,40.121113,-76.29972,LNS,2.0,1.0141467727674625
United States,KLG,US,America/Anchorage,Kalskag Municipal Airport,KLG,airport,61.53258,-160.3465,KLG,10.0,1.1273209549071619
United States,LCH,US,America/Chicago,Lake Charles Regional Airport,LCH,airport,30.131111,-93.225555,LCH,4.0,1.0424403183023874
United States,AVL,US,America/New_York,Asheville Regional Airport,AVL,airport,35.43508,-82.537315,AVL,20.0,1.268788682581786
United States,SCC,US,America/Anchorage,Prudhoe Bay/Deadhorse Airport,SCC,airport,70.203636,-148.46011,SCC,10.0,1.1273209549071619
United States,DFW,US,America/Chicago,Dallas Love Field,DAL,airport,32.84391,-96.85,DAL,40.0,1.5517241379310345
United States,SDP,US,America/Anchorage,Sand Point Municipal Airport,SDP,airport,55.316666,-160.51389,SDP,4.0,1.0424403183023874
United States,SKK,US,America/Anchorage,Shaktoolik Airport,SKK,airport,64.324165,-161.13889,SKK,11.0,1.1414677276746241
United States,ERI,US,America/New_York,Erie International Airport,ERI,airport,42.08314,-80.18203,ERI,6.0,1.070733863837312
United States,BTI,US,America/Anchorage,Barter Island Airport,BTI,airport,70.13472,-143.57834,BTI,4.0,1.0424403183023874
United States,SIT,US,America/Sitka,Sitka Airport,SIT,airport,57.04861,-135.23334,SIT,7.0,1.0848806366047745
United States,SVA,US,America/Anchorage,Savoonga Airport,SVA,airport,63.69093,-170.48679,SVA,8.0,1.099027409372237
United States,JNU,US,America/Juneau,Juneau International Airport,JNU,airport,58.35932,-134.58339,JNU,32.0,1.438549955791335
United States,PQS,US,America/Anchorage,Pilot Station Airport,PQS,airport,61.934723,-162.89055,PQS,4.0,1.0424403183023874
United States,SFO,US,America/Los_Angeles,San Francisco International Airport,SFO,airport,37.615215,-122.38988,SFO,573.0,9.091954022988507
United States,SUN,US,America/Boise,Friedman Memorial Airport,SUN,airport,43.50647,-114.30082,SUN,2.0,1.0141467727674625
United States,CHI,US,America/Chicago,Chicago Rockford International Airport,RFD,airport,42.30364,-89.222115,RFD,10.0,1.1273209549071619
United States,OOK,US,America/Anchorage,Toksook Bay Airport,OOK,airport,60.531944,-165.10834,OOK,6.0,1.070733863837312
United States,ALO,US,America/Chicago,Waterloo Airport,ALO,airport,42.55611,-92.39972,ALO,2.0,1.0141467727674625
United States,GST,US,America/Juneau,Gustavus Airport,GST,airport,58.4275,-135.705,GST,4.0,1.0424403183023874
United States,STS,US,America/Los_Angeles,Sonoma County Airport,STS,airport,38.50889,-122.81167,STS,10.0,1.1273209549071619
United States,HNM,US,Pacific/Honolulu,Hana Airport,HNM,airport,20.795834,-156.01889,HNM,6.0,1.070733863837312
United States,PGD,US,America/New_York,Charlotte County Airport,PGD,airport,26.919167,-81.99139,PGD,10.0,1.1273209549071619
United States,SHD,US,America/New_York,Shenandoah Valley Airport,SHD,airport,38.26389,-78.89667,SHD,4.0,1.0424403183023874
United States,KVL,US,America/Nome,Kivalina Airport,KVL,airport,67.73167,-164.54723,KVL,6.0,1.070733863837312
United States,ISN,US,America/Chicago,Sloulin Field International Airport,ISN,airport,48.17611,-103.63611,ISN,8.0,1.099027409372237
United States,GNV,US,America/New_York,Gainesville Regional Airport,GNV,airport,29.686142,-82.276794,GNV,16.0,1.2122015915119364
United States,PHX,US,America/Phoenix,Phoenix-Mesa Gateway Airport,AZA,airport,33.307777,-111.655556,AZA,62.0,1.8629531388152079
United States,HYG,US,America/Sitka,Hydaburg Sea Plane Base,HYG,airport,55.20667,-132.82666,HYG,2.0,1.0141467727674625
United States,EKO,US,America/Los_Angeles,Elko Airport,EKO,airport,40.82389,-115.78972,EKO,2.0,1.0141467727674625
United States,SAC,US,America/Los_Angeles,Sacramento International Airport,SMF,airport,38.692284,-121.5937,SMF,98.0,2.372236958443855
United States,GCC,US,America/Denver,Campbell County Airport,GCC,airport,44.346355,-105.532684,GCC,6.0,1.070733863837312
United States,HDN,US,America/Denver,Yampa Valley Airport,HDN,airport,40.48481,-107.220764,HDN,4.0,1.0424403183023874
Thailand,PRH,TH,Asia/Bangkok,Phrae Airport,PRH,airport,18.15,100.13333,PRH,2.0,1.0141467727674625
Thailand,ROI,TH,Asia/Bangkok,Roi Et Airport,ROI,airport,16.115278,103.77695,ROI,2.0,1.0141467727674625
Thailand,KOP,TH,Asia/Bangkok,Nakhon Phanom Airport,KOP,airport,17.4,104.75,KOP,4.0,1.0424403183023874
Thailand,CEI,TH,Asia/Bangkok,Chiang Rai International Airport,CEI,airport,19.954609,99.878815,CEI,10.0,1.1273209549071619
Thailand,UTH,TH,Asia/Bangkok,Udon Thani International Airport,UTH,airport,17.38661,102.774506,UTH,10.0,1.1273209549071619
Thailand,CNX,TH,Asia/Bangkok,Chiang Mai International Airport,CNX,airport,18.769573,98.96841,CNX,47.0,1.6507515473032714
Thailand,BKK,TH,Asia/Bangkok,Don Mueang International Airport,DMK,airport,13.9125,100.60667,DMK,116.0,2.6268788682581787
Thailand,LOE,TH,Asia/Bangkok,Loei Airport,LOE,airport,17.45,101.73333,LOE,2.0,1.0141467727674625
Thailand,UBP,TH,Asia/Bangkok,Ubon Ratchathani International Airport,UBP,airport,15.246491,104.87068,UBP,8.0,1.099027409372237
Thailand,NAW,TH,Asia/Bangkok,Narathiwat Airport,NAW,airport,6.516667,101.75,NAW,2.0,1.0141467727674625
Thailand,NST,TH,Asia/Bangkok,Nakhon Si Thammarat Airport,NST,airport,8.466667,99.95,NST,4.0,1.0424403183023874
Thailand,PHS,TH,Asia/Bangkok,Phitsanulok Airport,PHS,airport,16.771307,100.2812,PHS,2.0,1.0141467727674625
Thailand,HDY,TH,Asia/Bangkok,Hat Yai International Airport,HDY,airport,6.936764,100.39356,HDY,18.0,1.240495137046861
Thailand,USM,TH,Asia/Bangkok,Koh Samui Airport,USM,airport,9.555315,100.0628,USM,45.0,1.6224580017683468
Thailand,HGN,TH,Asia/Bangkok,Mae Hong Son Airport,HGN,airport,19.29968,97.97523,HGN,2.0,1.0141467727674625
Thailand,KKC,TH,Asia/Bangkok,Khon Kaen Airport,KKC,airport,16.46467,102.78749,KKC,2.0,1.0141467727674625
Thailand,TDX,TH,Asia/Bangkok,Trat Airport,TDX,airport,12.273953,102.31867,TDX,2.0,1.0141467727674625
Thailand,HKT,TH,Asia/Bangkok,Phuket International Airport,HKT,airport,8.107619,98.306435,HKT,113.0,2.5844385499557916
Thailand,KBV,TH,Asia/Bangkok,Krabi Airport,KBV,airport,8.097281,98.98062,KBV,12.0,1.1556145004420866
Thailand,UTP,TH,Asia/Bangkok,Utapao Airport,UTP,airport,12.683333,101.01667,UTP,4.0,1.0424403183023874
Thailand,BKK,TH,Asia/Bangkok,Suvarnabhumi Airport,BKK,airport,13.693062,100.752045,BKK,595.0,9.403183023872678
Thailand,MAQ,TH,Asia/Bangkok,Mae Sot Airport,MAQ,airport,16.666668,98.583336,MAQ,4.0,1.0424403183023874
Thailand,BFV,TH,Asia/Bangkok,Buri Ram Airport,BFV,airport,15.226944,103.25528,BFV,2.0,1.0141467727674625
Thailand,CJM,TH,Asia/Bangkok,Chumphon Airport,CJM,airport,10.709722,99.36389,CJM,2.0,1.0141467727674625
Thailand,THS,TH,Asia/Bangkok,Sukhothai Airport,THS,airport,17.223057,99.82222,THS,2.0,1.0141467727674625
Thailand,TST,TH,Asia/Bangkok,Trang Airport,TST,airport,7.5,99.61667,TST,4.0,1.0424403183023874
Thailand,SNO,TH,Asia/Bangkok,Sakon Nakhon Airport,SNO,airport,17.283333,104.1,SNO,2.0,1.0141467727674625
Thailand,URT,TH,Asia/Bangkok,Surat Thani Airport,URT,airport,9.133865,99.143196,URT,8.0,1.099027409372237
Thailand,NNT,TH,Asia/Bangkok,Nan Airport,NNT,airport,18.8,100.78333,NNT,2.0,1.0141467727674625
Thailand,LPT,TH,Asia/Bangkok,Lampang Airport,LPT,airport,18.274166,99.507225,LPT,2.0,1.0141467727674625
Bahrain,BAH,BH,Asia/Bahrain,Bahrain International Airport,BAH,airport,26.26918,50.62605,BAH,227.0,4.197170645446508
Northern Mariana Islands,ROP,MP,Pacific/Saipan,Rota Airport,ROP,airport,14.171568,145.24408,ROP,6.0,1.070733863837312
Northern Mariana Islands,SPN,MP,Pacific/Saipan,Saipan International Airport,SPN,airport,15.122178,145.72325,SPN,17.0,1.2263483642793989
Germany,HAM,DE,Europe/Berlin,Hamburg Airport,HAM,airport,53.63128,10.006414,HAM,297.0,5.187444739168877
Germany,FMO,DE,Europe/Berlin,Munster Osnabruck International Airport,FMO,airport,52.130054,7.694928,FMO,21.0,1.2829354553492485
Germany,NUE,DE,Europe/Berlin,Nuremberg Airport,NUE,airport,49.494167,11.077062,NUE,114.0,2.598585322723254
Germany,HAJ,DE,Europe/Berlin,Hannover Airport,HAJ,airport,52.459255,9.694766,HAJ,158.0,3.2210433244916
Germany,LEJ,DE,Europe/Berlin,Leipzig/Halle Airport,LEJ,airport,51.42026,12.221202,LEJ,78.0,2.0893015030946067
Germany,PAD,DE,Europe/Berlin,Paderborn Lippstadt Airport,PAD,airport,51.610332,8.619832,PAD,34.0,1.46684350132626
Germany,FRA,DE,Europe/Berlin,Frankfurt Airport,FRA,airport,50.050735,8.570773,FRA,1132.0,17.0
Germany,RLG,DE,Europe/Berlin,Laage Airport,RLG,airport,53.92,12.266667,RLG,10.0,1.1273209549071619
Germany,CGN,DE,Europe/Berlin,Cologne Bonn Airport,CGN,airport,50.878365,7.122224,CGN,267.0,4.763041556145005
Germany,MUC,DE,Europe/Berlin,Franz Josef Strauss Airport,MUC,airport,48.353004,11.790143,MUC,798.0,12.27497789566755
Germany,DUS,DE,Europe/Berlin,Dusseldorf International Airport,DUS,airport,51.278328,6.76558,DUS,620.0,9.75685234305924
Germany,FKB,DE,Europe/Berlin,Baden-Airpark,FKB,airport,48.781033,8.089752,FKB,56.0,1.7780725022104331
Germany,GWT,DE,Europe/Berlin,Westerland - Sylt Airport,GWT,airport,54.91528,8.343056,GWT,14.0,1.1839080459770115
Germany,FMM,DE,Europe/Berlin,Memmingen Allgau Airport,FMM,airport,47.98861,10.239444,FMM,52.0,1.7214854111405835
Germany,DRS,DE,Europe/Berlin,Dresden International Airport,DRS,airport,51.124332,13.766082,DRS,41.0,1.565870910698497
Germany,ERF,DE,Europe/Berlin,Erfurt Airport,ERF,airport,50.974915,10.961163,ERF,4.0,1.0424403183023874
Germany,DTM,DE,Europe/Berlin,Dortmund Airport,DTM,airport,51.514828,7.613139,DTM,60.0,1.834659593280283
Germany,FDH,DE,Europe/Berlin,Friedrichshafen Airport,FDH,airport,47.672775,9.523482,FDH,20.0,1.268788682581786
Germany,BRE,DE,Europe/Berlin,Bremen Airport,BRE,airport,53.05297,8.785352,BRE,89.0,2.2449160035366935
Germany,MUC,DE,Europe/Berlin,Augsburg Airport,AGB,airport,48.425278,10.931667,AGB,2.0,1.0141467727674625
Germany,DUS,DE,Europe/Berlin,Weeze Airport,NRN,airport,51.599285,6.150168,NRN,104.0,2.4571175950486293
Germany,SCN,DE,Europe/Berlin,Ensheim Airport,SCN,airport,49.22009,7.112705,SCN,17.0,1.2263483642793989
Germany,STR,DE,Europe/Berlin,Stuttgart Airport,STR,airport,48.69073,9.193624,STR,292.0,5.116710875331565
Germany,FRA,DE,Europe/Berlin,Frankfurt - Hahn Airport,HHN,airport,49.948334,7.264167,HHN,102.0,2.428824049513705
Germany,HDF,DE,Europe/Berlin,Heringsdorf Airport,HDF,airport,53.87825,14.138242,HDF,10.0,1.1273209549071619
Slovakia,KSC,SK,Europe/Bratislava,Barca Airport,KSC,airport,48.666668,21.25,KSC,4.0,1.0424403183023874
Slovakia,BTS,SK,Europe/Bratislava,Bratislava Airport,BTS,airport,48.170017,17.199799,BTS,36.0,1.4951370468611849
Slovakia,TAT,SK,Europe/Bratislava,Poprad/Tatry Airport,TAT,airport,49.071945,20.240278,TAT,2.0,1.0141467727674625
Israel,TLV,IL,Asia/Jerusalem,Dov Hoz Airport,SDV,airport,32.104885,34.787857,SDV,4.0,1.0424403183023874
Israel,TLV,IL,Asia/Jerusalem,Ben Gurion International Airport,TLV,airport,32.000454,34.870743,TLV,252.0,4.550839964633068
Spain,LEN,ES,Europe/Madrid,Leon Airport,LEN,airport,42.59057,-5.64629,LEN,2.0,1.0141467727674625
Spain,LPA,ES,Atlantic/Canary,Gran Canaria Airport,LPA,airport,27.938944,-15.389351,LPA,294.0,5.14500442086649
Spain,BJZ,ES,Europe/Madrid,Badajoz Airport,BJZ,airport,38.891666,-6.82,BJZ,8.0,1.099027409372237
Spain,GRO,ES,Europe/Madrid,Girona-Costa Brava Airport,GRO,airport,41.89804,2.766383,GRO,110.0,2.541998231653404
Spain,VDE,ES,Atlantic/Canary,Hierro Airport,VDE,airport,27.813969,-17.884937,VDE,10.0,1.1273209549071619
Spain,OVD,ES,Europe/Madrid,Asturias Airport,OVD,airport,43.55891,-6.032094,OVD,36.0,1.4951370468611849
Spain,MLN,ES,Africa/Ceuta,Melilla Airport,MLN,airport,35.277077,-2.957473,MLN,16.0,1.2122015915119364
Spain,FUE,ES,Atlantic/Canary,Fuerteventura Airport,FUE,airport,28.450605,-13.869893,FUE,181.0,3.546419098143236
Spain,ZAZ,ES,Europe/Madrid,Zaragoza Airport,ZAZ,airport,41.66386,-1.007466,ZAZ,24.0,1.3253757736516358
Spain,BIO,ES,Europe/Madrid,Bilbao Airport,BIO,airport,43.305534,-2.905808,BIO,124.0,2.740053050397878
Spain,ACE,ES,Atlantic/Canary,Lanzarote Airport,ACE,airport,28.950668,-13.609059,ACE,236.0,4.324491600353669
Spain,SLM,ES,Europe/Madrid,Matacan Airport,SLM,airport,40.966667,-5.65,SLM,2.0,1.0141467727674625
Spain,SPC,ES,Atlantic/Canary,La Palma Airport,SPC,airport,28.626389,-17.755556,SPC,36.0,1.4951370468611849
Spain,BCN,ES,Europe/Madrid,Barcelona-El Prat Airport,BCN,airport,41.30303,2.07593,BCN,682.0,10.63395225464191
Spain,VLC,ES,Europe/Madrid,Valencia Airport,VLC,airport,39.49179,-0.473475,VLC,170.0,3.3908045977011496
Spain,GMZ,ES,Atlantic/Canary,La Gomera Airport,GMZ,airport,28.016666,-17.2,GMZ,2.0,1.0141467727674625
Spain,RJL,ES,Europe/Madrid,Agoncillo Airport,RJL,airport,42.456944,-2.323611,RJL,2.0,1.0141467727674625
Spain,MAD,ES,Europe/Madrid,Adolfo Suarez Madrid-Barajas Airport,MAD,airport,40.46515,-3.570209,MAD,709.0,11.015915119363395
Spain,ILD,ES,Europe/Madrid,Lleida-Alguaire Airport,ILD,airport,41.728836,0.543302,ILD,2.0,1.0141467727674625
Spain,AGP,ES,Europe/Madrid,Malaga Airport,AGP,airport,36.675182,-4.489616,AGP,356.0,6.02210433244916
Spain,TCI,ES,Atlantic/Canary,Tenerife North Airport,TFN,airport,28.488056,-16.345982,TFN,69.0,1.9619805481874448
Spain,REU,ES,Europe/Madrid,Reus Airport,REU,airport,41.146103,1.153319,REU,49.0,1.6790450928381961
Spain,SVQ,ES,Europe/Madrid,Seville Airport,SVQ,airport,37.423477,-5.900136,SVQ,115.0,2.612732095490716
Spain,LCG,ES,Europe/Madrid,A Coruna Airport,LCG,airport,43.30236,-8.381923,LCG,18.0,1.240495137046861
Spain,XRY,ES,Europe/Madrid,Jerez Airport,XRY,airport,36.750614,-6.064535,XRY,43.0,1.5941644562334218
Spain,SDR,ES,Europe/Madrid,Santander Airport,SDR,airport,43.423084,-3.824453,SDR,40.0,1.5517241379310345
Spain,SCQ,ES,Europe/Madrid,Santiago De Compostela Airport,SCQ,airport,42.897316,-8.420327,SCQ,56.0,1.7780725022104331
Spain,MAH,ES,Europe/Madrid,Menorca Airport,MAH,airport,39.864746,4.226256,MAH,77.0,2.075154730327144
Spain,EAS,ES,Europe/Madrid,San Sebastian Airport,EAS,airport,43.3564,-1.793538,EAS,6.0,1.070733863837312
Spain,GRX,ES,Europe/Madrid,Granada Airport,GRX,airport,37.184727,-3.776954,GRX,16.0,1.2122015915119364
Spain,ALC,ES,Europe/Madrid,Alicante-Elche Airport,ALC,airport,38.287098,-0.557381,ALC,270.0,4.805481874447391
Spain,LEI,ES,Europe/Madrid,Almeria Airport,LEI,airport,36.847984,-2.371873,LEI,24.0,1.3253757736516358
Spain,VLL,ES,Europe/Madrid,Valladolid Airport,VLL,airport,41.70581,-4.844626,VLL,16.0,1.2122015915119364
Spain,TCI,ES,Atlantic/Canary,Tenerife South Airport,TFS,airport,28.044443,-16.5725,TFS,296.0,5.173297966401415
Spain,VGO,ES,Europe/Madrid,Vigo Airport,VGO,airport,42.224552,-8.634025,VGO,24.0,1.3253757736516358
Spain,PNA,ES,Europe/Madrid,Pamplona Airport,PNA,airport,42.767498,-1.639347,PNA,6.0,1.070733863837312
Spain,IBZ,ES,Europe/Madrid,Ibiza Airport,IBZ,airport,38.876595,1.367803,IBZ,186.0,3.617152961980548
Spain,PMI,ES,Europe/Madrid,Palma de Mallorca Airport,PMI,airport,39.547653,2.730388,PMI,516.0,8.285587975243148
Nicaragua,MGA,NI,America/Managua,Augusto C Sandino International Airport,MGA,airport,12.144838,-86.171265,MGA,35.0,1.4809902740937224
Hungary,DEB,HU,Europe/Budapest,Debrecen Airport,DEB,airport,47.55,21.7,DEB,2.0,1.0141467727674625
Hungary,BUD,HU,Europe/Budapest,Budapest Ferenc Liszt International Airport,BUD,airport,47.433037,19.261621,BUD,201.0,3.8293545534924847
Georgia,BUS,GE,Asia/Tbilisi,Batumi Airport,BUS,airport,41.610832,41.600555,BUS,22.0,1.297082228116711
Georgia,TBS,GE,Asia/Tbilisi,Tbilisi International Airport,TBS,airport,41.674065,44.958958,TBS,71.0,1.9902740937223697
Georgia,KUT,GE,Asia/Tbilisi,Kutaisi International Airport,KUT,airport,42.25,42.7,KUT,4.0,1.0424403183023874
Brazil,JOI,BR,America/Sao_Paulo,Joinville-Lauro Carneiro de Loyola Airport,JOI,airport,-26.233334,-48.783333,JOI,14.0,1.1839080459770115
Brazil,CZS,BR,America/Rio_Branco,Campo Internacional Airport,CZS,airport,-7.583333,-72.78333,CZS,2.0,1.0141467727674625
Brazil,JDO,BR,America/Fortaleza,Orlando Bezerra de Menezes Airport,JDO,airport,-7.2,-39.316666,JDO,16.0,1.2122015915119364
Brazil,CGB,BR,America/Cuiaba,Marechal Rondon International Airport,CGB,airport,-15.651725,-56.120266,CGB,82.0,2.1458885941644565
Brazil,MII,BR,America/Sao_Paulo,Dr Gastao Vidigal Airport,MII,airport,-22.2,-49.933334,MII,9.0,1.1131741821396994
Brazil,URG,BR,America/Sao_Paulo,Ruben Berta Airport,URG,airport,-29.781668,-57.038334,URG,6.0,1.070733863837312
Brazil,CPV,BR,America/Fortaleza,Joao Suassuna Airport,CPV,airport,-7.266667,-35.9,CPV,3.0,1.028293545534925
Brazil,SAO,BR,America/Sao_Paulo,Viracopos Airport,VCP,airport,-23.009892,-47.141674,VCP,100.0,2.40053050397878
Brazil,PPB,BR,America/Sao_Paulo,A. De Barros Airport,PPB,airport,-22.1,-51.45,PPB,10.0,1.1273209549071619
Brazil,RIA,BR,America/Sao_Paulo,Santa Maria Airport,RIA,airport,-29.710556,-53.6875,RIA,18.0,1.240495137046861
Brazil,OPS,BR,America/Cuiaba,Sinop Airport,OPS,airport,-11.878573,-55.58156,OPS,10.0,1.1273209549071619
Brazil,UDI,BR,America/Sao_Paulo,Uberlandia-Ten. Cel. Av. Cesar Bombonato Airport,UDI,airport,-18.9,-48.233334,UDI,37.0,1.509283819628647
Brazil,RIO,BR,America/Sao_Paulo,Galeao Antonio Carlos Jobim International Airport,GIG,airport,-22.814653,-43.24651,GIG,216.0,4.041556145004421
Brazil,AFL,BR,America/Cuiaba,Alta Floresta Airport,AFL,airport,-9.872456,-56.104767,AFL,6.0,1.070733863837312
Brazil,BEL,BR,America/Belem,Val De Cans International Airport,BEL,airport,-1.389865,-48.480003,BEL,99.0,2.3863837312113176
Brazil,OAL,BR,America/Porto_Velho,Cacoal Airport,OAL,airport,-11.433889,-61.4825,OAL,10.0,1.1273209549071619
Brazil,IPN,BR,America/Sao_Paulo,Usiminas Airport,IPN,airport,-19.5,-42.533333,IPN,12.0,1.1556145004420866
Brazil,BRA,BR,America/Bahia,Barreiras Airport,BRA,airport,-12.073056,-45.00833,BRA,16.0,1.2122015915119364
Brazil,DOU,BR,America/Campo_Grande,Dourados Airport,DOU,airport,-22.202778,-54.925556,DOU,8.0,1.099027409372237
Brazil,RIO,BR,America/Sao_Paulo,Santos Dumont Airport,SDU,airport,-22.911541,-43.167095,SDU,78.0,2.0893015030946067
Brazil,BVH,BR,America/Porto_Velho,Vilhena Airport,BVH,airport,-12.716667,-60.11667,BVH,6.0,1.070733863837312
Brazil,UBA,BR,America/Sao_Paulo,Uberaba Airport,UBA,airport,-19.776388,-47.958332,UBA,8.0,1.099027409372237
Brazil,SJP,BR,America/Sao_Paulo,Sao Jose do Rio Preto Airport,SJP,airport,-20.816668,-49.416668,SJP,18.0,1.240495137046861
Brazil,CAC,BR,America/Sao_Paulo,Cascavel Airport,CAC,airport,-24.95,-53.466667,CAC,16.0,1.2122015915119364
Brazil,MGF,BR,America/Sao_Paulo,Regional De Maringa,MGF,airport,-23.383612,-51.933334,MGF,33.0,1.4526967285587975
Brazil,MOC,BR,America/Sao_Paulo,Montes Claros Airport,MOC,airport,-16.707779,-43.817223,MOC,12.0,1.1556145004420866
Brazil,CMG,BR,America/Campo_Grande,Corumba Internacional Airport,CMG,airport,-19.01111,-57.672222,CMG,4.0,1.0424403183023874
Brazil,MAB,BR,America/Belem,Maraba Airport,MAB,airport,-5.366667,-49.166668,MAB,25.0,1.339522546419098
Brazil,CGR,BR,America/Campo_Grande,Campo Grande International Airport,CGR,airport,-20.456991,-54.668873,CGR,47.0,1.6507515473032714
Brazil,TBT,BR,America/Manaus,Tabatinga International Airport,TBT,airport,-4.233333,-69.933334,TBT,6.0,1.070733863837312
Brazil,VDC,BR,America/Bahia,Vitoria Da Conquista Airport,VDC,airport,-14.883333,-40.86667,VDC,12.0,1.1556145004420866
Brazil,GYN,BR,America/Sao_Paulo,Santa Genoveva Airport,GYN,airport,-16.632631,-49.226624,GYN,66.0,1.9195402298850575
Brazil,TFF,BR,America/Manaus,Tefe Airport,TFF,airport,-3.366667,-64.7,TFF,12.0,1.1556145004420866
Brazil,VAG,BR,America/Sao_Paulo,Major-Brigadeiro Trompowsky Airport,VAG,airport,-21.55,-45.433334,VAG,10.0,1.1273209549071619
Brazil,REC,BR,America/Recife,Guararapes-Gilberto Freyre International Airport,REC,airport,-8.131507,-34.91792,REC,88.0,2.230769230769231
Brazil,GEL,BR,America/Sao_Paulo,Sepe Tiaraju,GEL,airport,-28.28111,-54.168056,GEL,8.0,1.099027409372237
Brazil,PMW,BR,America/Araguaina,Palmas Airport,PMW,airport,-10.241667,-48.35278,PMW,10.0,1.1273209549071619
Brazil,LDB,BR,America/Sao_Paulo,Londrina Airport,LDB,airport,-23.328457,-51.137714,LDB,36.0,1.4951370468611849
Brazil,IMP,BR,America/Fortaleza,Imperatriz Airport,IMP,airport,-5.531944,-47.480556,IMP,14.0,1.1839080459770115
Brazil,CXJ,BR,America/Sao_Paulo,Hugo Cantergiani Regional Airport,CXJ,airport,-29.166668,-51.183334,CXJ,7.0,1.0848806366047745
Brazil,ATM,BR,America/Santarem,Altamira Airport,ATM,airport,-3.2,-52.216667,ATM,11.0,1.1414677276746241
Brazil,TMT,BR,America/Santarem,Trombetas,TMT,airport,-1.916667,-55.583332,TMT,8.0,1.099027409372237
Brazil,AUX,BR,America/Araguaina,Araguaina Airport,AUX,airport,-7.2,-48.2,AUX,12.0,1.1556145004420866
Brazil,SAO,BR,America/Sao_Paulo,Sao Paulo/Congonhas Airport,CGH,airport,-23.626902,-46.659557,CGH,109.0,2.5278514588859418
Brazil,CFB,BR,America/Sao_Paulo,Cabo Frio International Airport,CFB,airport,-22.925,-42.07861,CFB,4.0,1.0424403183023874
Brazil,VIX,BR,America/Sao_Paulo,Eurico de Aguiar Salles Airport,VIX,airport,-20.25681,-40.289566,VIX,54.0,1.7497789566755084
Brazil,PNZ,BR,America/Recife,Petrolina International Airport,PNZ,airport,-9.393333,-40.490555,PNZ,9.0,1.1131741821396994
Brazil,FEN,BR,America/Noronha,Fernando De Noronha Airport,FEN,airport,-3.85,-32.416668,FEN,6.0,1.070733863837312
Brazil,JDF,BR,America/Sao_Paulo,Zona da Mata Regional Airport,IZA,airport,-21.513056,-43.173058,IZA,2.0,1.0141467727674625
Brazil,CWB,BR,America/Sao_Paulo,Afonso Pena International Airport,CWB,airport,-25.5322,-49.176544,CWB,103.0,2.442970822281167
Brazil,POA,BR,America/Sao_Paulo,Salgado Filho International Airport,POA,airport,-29.98961,-51.17709,POA,101.0,2.414677276746242
Brazil,PET,BR,America/Sao_Paulo,Federal Airport,PET,airport,-31.718056,-52.324444,PET,7.0,1.0848806366047745
Brazil,GVR,BR,America/Sao_Paulo,Governador Valadares Airport,GVR,airport,-18.850279,-41.933334,GVR,8.0,1.099027409372237
Brazil,JPR,BR,America/Porto_Velho,Ji-Parana Airport,JPR,airport,-10.870556,-61.84667,JPR,8.0,1.099027409372237
Brazil,FLN,BR,America/Sao_Paulo,Hercilio Luz International Airport,FLN,airport,-27.664446,-48.5452,FLN,54.0,1.7497789566755084
Brazil,MAO,BR,America/Manaus,Eduardo Gomes International Airport,MAO,airport,-3.031327,-60.046093,MAO,91.0,2.273209549071618
Brazil,RBR,BR,America/Rio_Branco,Pres. Medici Airport,RBR,airport,-9.966667,-67.8,RBR,10.0,1.1273209549071619
Brazil,MCP,BR,America/Belem,Macapa International Airport,MCP,airport,0.049895,-51.068382,MCP,9.0,1.1131741821396994
Brazil,FOR,BR,America/Fortaleza,Pinto Martins Airport,FOR,airport,-3.779073,-38.540836,FOR,79.0,2.103448275862069
